{"type": "FeatureCollection", "features": [{"geometry": {"type": "Point", "coordinates": [144.897222, -37.747457]}, "type": "Feature", "properties": {"division": "Niddrie District", "gx_id": "1200", "booth_info": "", "premises": "Buckley Park", "opening_hours": "", "has_bbq": "1", "address": " Cooper Street Essendon 28 C2", "source": "", "state": "VIC", "polling_place_name": "Buckley Park College", "has_nothing": "0", "has_caek": "0", "gid": "1200", "extra_info": ""}}, {"geometry": {"type": "Point", "coordinates": [145.123717, -37.918205]}, "type": "Feature", "properties": {"division": "Clarinda District", "gx_id": "344", "booth_info": "", "premises": "Clayton", "opening_hours": "", "has_bbq": "0", "address": " 40393 Fregon Road Clayton 79D1", "source": "", "state": "VIC", "polling_place_name": "Fregon Hall", "has_nothing": "0", "has_caek": "0", "gid": "344", "extra_info": ""}}, {"geometry": {"type": "Point", "coordinates": [145.082012, -37.935629]}, "type": "Feature", "properties": {"division": "Clarinda District", "gx_id": "345", "booth_info": "", "premises": "Heatherton North", "opening_hours": "", "has_bbq": "0", "address": " 3 Washington Drive Oakleigh South 78 D5", "source": "", "state": "VIC", "polling_place_name": "Washington Drive Pre-School", "has_nothing": "0", "has_caek": "0", "gid": "345", "extra_info": ""}}, {"geometry": {"type": "Point", "coordinates": [145.06859, -37.95334]}, "type": "Feature", "properties": {"division": "Clarinda District", "gx_id": "346", "booth_info": "", "premises": "Cheltenham North", "opening_hours": "", "has_bbq": "0", "address": " 73 Bernard Street Cheltenham 78 A10", "source": "", "state": "VIC", "polling_place_name": "Cheltenham Secondary College", "has_nothing": "0", "has_caek": "0", "gid": "346", "extra_info": "Enviro Team + some Yr 9 CONNECT students: Sustainability Stall "}}, {"geometry": {"type": "Point", "coordinates": [145.27748, -38.10393]}, "type": "Feature", "properties": {"division": "Cranbourne District", "gx_id": "347", "booth_info": "", "premises": "Cranbourne Park", "opening_hours": "", "has_bbq": "0", "address": " 1 Tucker Street Cranbourne 133 H3", "source": "", "state": "VIC", "polling_place_name": "Cranbourne Park Primary School", "has_nothing": "0", "has_caek": "0", "gid": "347", "extra_info": ""}}, {"geometry": {"type": "Point", "coordinates": [145.150492, -37.953404]}, "type": "Feature", "properties": {"division": "Clarinda District", "gx_id": "340", "booth_info": "", "premises": "Springvale Central", "opening_hours": "", "has_bbq": "0", "address": " corner Buckingham and St James Avenue Springvale 79 K10", "source": "", "state": "VIC", "polling_place_name": "St. Josephs Catholic Primary School", "has_nothing": "1", "has_caek": "0", "gid": "340", "extra_info": ""}}, {"geometry": {"type": "Point", "coordinates": [145.11622, -37.94053999999999]}, "type": "Feature", "properties": {"division": "Clarinda District", "gx_id": "341", "booth_info": "", "premises": "Clayton South", "opening_hours": "", "has_bbq": "1", "address": " 539 Clayton Road Clayton South 79 B7", "source": "", "state": "VIC", "polling_place_name": "Clayton South Primary School", "has_nothing": "0", "has_caek": "1", "gid": "341", "extra_info": ""}}, {"geometry": {"type": "Point", "coordinates": [145.06835000000004, -37.96526]}, "type": "Feature", "properties": {"division": "Clarinda District", "gx_id": "342", "booth_info": "", "premises": "Cheltenham East", "opening_hours": "", "has_bbq": "1", "address": " Silver Street Cheltenham 87 A1", "source": "", "state": "VIC", "polling_place_name": "Cheltenham East Primary School", "has_nothing": "0", "has_caek": "1", "gid": "342", "extra_info": ""}}, {"geometry": {"type": "Point", "coordinates": [145.13908, -37.96378]}, "type": "Feature", "properties": {"division": "Clarinda District", "gx_id": "343", "booth_info": "", "premises": "Spring Valley", "opening_hours": "", "has_bbq": "0", "address": " 27-39 Clarke Road Springvale South 88 G1", "source": "", "state": "VIC", "polling_place_name": "Spring Parks Primary School - Valley Campus", "has_nothing": "0", "has_caek": "0", "gid": "343", "extra_info": ""}}, {"geometry": {"type": "Point", "coordinates": [145.309659, -38.073425]}, "type": "Feature", "properties": {"division": "Cranbourne District", "gx_id": "348", "booth_info": "", "premises": "Casey Central", "opening_hours": "", "has_bbq": "0", "address": " 15 Nurture Avenue Cranbourne North 130 F7", "source": "", "state": "VIC", "polling_place_name": "Alkira Secondary College", "has_nothing": "0", "has_caek": "0", "gid": "348", "extra_info": ""}}, {"geometry": {"type": "Point", "coordinates": [145.248439, -38.052417000000005]}, "type": "Feature", "properties": {"division": "Cranbourne District", "gx_id": "349", "booth_info": "", "premises": "Lynbrook", "opening_hours": "", "has_bbq": "0", "address": " corner Paterson Drive and Ronans Retreat Lynbrook 96 B12", "source": "", "state": "VIC", "polling_place_name": "Lynbrook Primary School", "has_nothing": "0", "has_caek": "0", "gid": "349", "extra_info": ""}}, {"geometry": {"type": "Point", "coordinates": [145.101198, -37.879776]}, "type": "Feature", "properties": {"division": "Burwood District", "gx_id": "298", "booth_info": "", "premises": "Jordanville South", "opening_hours": "", "has_bbq": "1", "address": " 20 Bolwarra Street Chadstone 69 J2", "source": "", "state": "VIC", "polling_place_name": "St Mary Magdalen's School", "has_nothing": "0", "has_caek": "1", "gid": "298", "extra_info": "St. Mary Magdelan's Primary School Fete"}}, {"geometry": {"type": "Point", "coordinates": [145.083929, -37.84758]}, "type": "Feature", "properties": {"division": "Burwood District", "gx_id": "299", "booth_info": "", "premises": "Hartwell", "opening_hours": "", "has_bbq": "0", "address": " Milverton Street Camberwell 60 E5", "source": "", "state": "VIC", "polling_place_name": "Hartwell Primary School", "has_nothing": "0", "has_caek": "0", "gid": "299", "extra_info": ""}}, {"geometry": {"type": "Point", "coordinates": [145.088825, -37.854357]}, "type": "Feature", "properties": {"division": "Burwood District", "gx_id": "296", "booth_info": "", "premises": "Burwood", "opening_hours": "", "has_bbq": "1", "address": " 48a Alfred Road Glen Iris 60 F7", "source": "", "state": "VIC", "polling_place_name": "Alfred Road Kindergarten", "has_nothing": "0", "has_caek": "1", "gid": "296", "extra_info": ""}}, {"geometry": {"type": "Point", "coordinates": [145.097301, -37.849422]}, "type": "Feature", "properties": {"division": "Burwood District", "gx_id": "297", "booth_info": "", "premises": "Burwood Central", "opening_hours": "", "has_bbq": "1", "address": " 40423 Central Avenue Burwood 60 H5", "source": "", "state": "VIC", "polling_place_name": "St Benedict's Primary School Hall", "has_nothing": "0", "has_caek": "1", "gid": "297", "extra_info": ""}}, {"geometry": {"type": "Point", "coordinates": [145.07333, -37.872499]}, "type": "Feature", "properties": {"division": "Burwood District", "gx_id": "294", "booth_info": "", "premises": "Glen Iris South", "opening_hours": "", "has_bbq": "1", "address": " Winton Road Ashburton 60 B12", "source": "", "state": "VIC", "polling_place_name": "Solway Primary School", "has_nothing": "0", "has_caek": "1", "gid": "294", "extra_info": ""}}, {"geometry": {"type": "Point", "coordinates": [145.08407700000004, -37.866675]}, "type": "Feature", "properties": {"division": "Burwood District", "gx_id": "295", "booth_info": "", "premises": "Alamein", "opening_hours": "", "has_bbq": "0", "address": " 7 Samarinda Avenue Ashburton 60 E10", "source": "", "state": "VIC", "polling_place_name": "Craig Family Centre", "has_nothing": "0", "has_caek": "0", "gid": "295", "extra_info": ""}}, {"geometry": {"type": "Point", "coordinates": [145.105268, -37.865089]}, "type": "Feature", "properties": {"division": "Burwood District", "gx_id": "292", "booth_info": "", "premises": "Ashwood", "opening_hours": "", "has_bbq": "1", "address": " Vannam Drive Ashwood 60 J10", "source": "", "state": "VIC", "polling_place_name": "Ashwood Secondary College", "has_nothing": "0", "has_caek": "0", "gid": "292", "extra_info": ""}}, {"geometry": {"type": "Point", "coordinates": [145.08381, -37.86220999999999]}, "type": "Feature", "properties": {"division": "Burwood District", "gx_id": "293", "booth_info": "", "premises": "Ashburton", "opening_hours": "", "has_bbq": "1", "address": " Fakenham Road Ashburton 60 E9", "source": "", "state": "VIC", "polling_place_name": "Ashburton Primary School", "has_nothing": "0", "has_caek": "1", "gid": "293", "extra_info": ""}}, {"geometry": {"type": "Point", "coordinates": [145.09011699999996, -37.827591]}, "type": "Feature", "properties": {"division": "Burwood District", "gx_id": "290", "booth_info": "", "premises": "Chatham South", "opening_hours": "", "has_bbq": "0", "address": " 1 Kent Road Surrey Hills 46 F12", "source": "", "state": "VIC", "polling_place_name": "Youth With A Mission", "has_nothing": "0", "has_caek": "0", "gid": "290", "extra_info": ""}}, {"geometry": {"type": "Point", "coordinates": [145.125772, -37.852079]}, "type": "Feature", "properties": {"division": "Burwood District", "gx_id": "291", "booth_info": "", "premises": "Starling", "opening_hours": "", "has_bbq": "1", "address": " 40393 Starling Street Burwood 61 D6", "source": "", "state": "VIC", "polling_place_name": "St Scholastica's Community Centre", "has_nothing": "0", "has_caek": "0", "gid": "291", "extra_info": "Scones!"}}, {"geometry": {"type": "Point", "coordinates": [143.82646, -37.67863]}, "type": "Feature", "properties": {"division": "Buninyong District", "gx_id": "270", "booth_info": "", "premises": "Napoleons", "opening_hours": "", "has_bbq": "0", "address": " 4721 Colac-Ballarat Road Napoleons 76 F4", "source": "", "state": "VIC", "polling_place_name": "Napoleons Primary School", "has_nothing": "0", "has_caek": "0", "gid": "270", "extra_info": ""}}, {"geometry": {"type": "Point", "coordinates": [143.87591, -37.57297]}, "type": "Feature", "properties": {"division": "Buninyong District", "gx_id": "271", "booth_info": "", "premises": "Canadian", "opening_hours": "", "has_bbq": "0", "address": " 301 Otway Street South Canadian 566 G10", "source": "", "state": "VIC", "polling_place_name": "Canadian Lead Primary School", "has_nothing": "0", "has_caek": "0", "gid": "271", "extra_info": ""}}, {"geometry": {"type": "Point", "coordinates": [144.34632000000002, -37.61972]}, "type": "Feature", "properties": {"division": "Buninyong District", "gx_id": "272", "booth_info": "", "premises": "Myrniong", "opening_hours": "", "has_bbq": "0", "address": " Blow Street Myrniong 77 G3", "source": "", "state": "VIC", "polling_place_name": "Myrniong Primary School", "has_nothing": "0", "has_caek": "0", "gid": "272", "extra_info": ""}}, {"geometry": {"type": "Point", "coordinates": [143.757377, -37.633284999999994]}, "type": "Feature", "properties": {"division": "Buninyong District", "gx_id": "273", "booth_info": "", "premises": "Ross Creek", "opening_hours": "", "has_bbq": "0", "address": " 655 Sebastopol-Smythesdale Road Ross Creek 76 E4", "source": "", "state": "VIC", "polling_place_name": "Ross Creek Hall", "has_nothing": "0", "has_caek": "0", "gid": "273", "extra_info": ""}}, {"geometry": {"type": "Point", "coordinates": [143.85815, -37.57794]}, "type": "Feature", "properties": {"division": "Buninyong District", "gx_id": "274", "booth_info": "", "premises": "Mount Pleasant", "opening_hours": "", "has_bbq": "0", "address": " 401 Cobden Street (access via Trethowan Street) Mount Pleasant 566 D12", "source": "", "state": "VIC", "polling_place_name": "Mount Pleasant Primary School", "has_nothing": "0", "has_caek": "0", "gid": "274", "extra_info": ""}}, {"geometry": {"type": "Point", "coordinates": [143.88577, -37.6541]}, "type": "Feature", "properties": {"division": "Buninyong District", "gx_id": "275", "booth_info": "", "premises": "Buninyong", "opening_hours": "", "has_bbq": "0", "address": " 202 Simpson Street Buninyong 578 J5", "source": "", "state": "VIC", "polling_place_name": "Buninyong Primary School", "has_nothing": "0", "has_caek": "0", "gid": "275", "extra_info": ""}}, {"geometry": {"type": "Point", "coordinates": [143.752631, -37.819718]}, "type": "Feature", "properties": {"division": "Buninyong District", "gx_id": "276", "booth_info": "", "premises": "Dereel", "opening_hours": "", "has_bbq": "0", "address": " Swamp Road Dereel 92 G8", "source": "", "state": "VIC", "polling_place_name": "Dereel Soldiers' Memorial Community Centre", "has_nothing": "0", "has_caek": "0", "gid": "276", "extra_info": ""}}, {"geometry": {"type": "Point", "coordinates": [143.869287, -37.610622]}, "type": "Feature", "properties": {"division": "Buninyong District", "gx_id": "277", "booth_info": "", "premises": "Mount Clear", "opening_hours": "", "has_bbq": "0", "address": " 1412 Geelong Road Mount Clear 572 F6", "source": "", "state": "VIC", "polling_place_name": "Damascus College", "has_nothing": "0", "has_caek": "0", "gid": "277", "extra_info": ""}}, {"geometry": {"type": "Point", "coordinates": [143.839933, -37.597443]}, "type": "Feature", "properties": {"division": "Buninyong District", "gx_id": "278", "booth_info": "", "premises": "Sebastopol", "opening_hours": "", "has_bbq": "0", "address": " 10 Birdwood Avenue Sebastopol 571 U4", "source": "", "state": "VIC", "polling_place_name": "Sebastopol RSL", "has_nothing": "0", "has_caek": "0", "gid": "278", "extra_info": ""}}, {"geometry": {"type": "Point", "coordinates": [144.218611, -37.738233]}, "type": "Feature", "properties": {"division": "Buninyong District", "gx_id": "279", "booth_info": "", "premises": "Mount Wallace", "opening_hours": "", "has_bbq": "0", "address": " Mount Wallace Hall Lane Mount Wallace 77 E5", "source": "", "state": "VIC", "polling_place_name": "Mount Wallace Hall", "has_nothing": "0", "has_caek": "0", "gid": "279", "extra_info": ""}}, {"geometry": {"type": "Point", "coordinates": [146.26435, -38.17470999999999]}, "type": "Feature", "properties": {"division": "Narracan District", "gx_id": "1132", "booth_info": "", "premises": "Moe", "opening_hours": "", "has_bbq": "0", "address": " 40 Albert Street (access via Anzac Street) Moe 700 F4", "source": "", "state": "VIC", "polling_place_name": "Albert Street Primary School", "has_nothing": "0", "has_caek": "0", "gid": "1132", "extra_info": ""}}, {"geometry": {"type": "Point", "coordinates": [145.078824, -37.992495]}, "type": "Feature", "properties": {"division": "Mordialloc District", "gx_id": "1004", "booth_info": "", "premises": "Parkdale", "opening_hours": "", "has_bbq": "1", "address": " corner Parkers Road and Blanche Avenue Parkdale 87 D9", "source": "", "state": "VIC", "polling_place_name": "St. David's Parkdale Uniting Church", "has_nothing": "0", "has_caek": "0", "gid": "1004", "extra_info": ""}}, {"geometry": {"type": "Point", "coordinates": [147.112062, -36.27590500000001]}, "type": "Feature", "properties": {"division": "Benambra District", "gx_id": "108", "booth_info": "", "premises": "Sandy Creek", "opening_hours": "", "has_bbq": "0", "address": " Lockhart's Gap Road Sandy Creek 36 C6", "source": "", "state": "VIC", "polling_place_name": "Sandy Creek Memorial Hall", "has_nothing": "0", "has_caek": "0", "gid": "108", "extra_info": ""}}, {"geometry": {"type": "Point", "coordinates": [146.846635, -36.116969]}, "type": "Feature", "properties": {"division": "Benambra District", "gx_id": "109", "booth_info": "", "premises": "Victory", "opening_hours": "", "has_bbq": "1", "address": " 28 Drage Road Wodonga 654 E4", "source": "", "state": "VIC", "polling_place_name": "Victory Lutheran Primary School", "has_nothing": "0", "has_caek": "0", "gid": "109", "extra_info": ""}}, {"geometry": {"type": "Point", "coordinates": [146.730855, -36.290509]}, "type": "Feature", "properties": {"division": "Benambra District", "gx_id": "102", "booth_info": "", "premises": "Wooragee", "opening_hours": "", "has_bbq": "0", "address": " 1011 Beechworth-Wodonga Road Wooragee 659 O2", "source": "", "state": "VIC", "polling_place_name": "Wooragee Centenary Hall", "has_nothing": "0", "has_caek": "0", "gid": "102", "extra_info": ""}}, {"geometry": {"type": "Point", "coordinates": [146.61157499999996, -36.151234]}, "type": "Feature", "properties": {"division": "Benambra District", "gx_id": "103", "booth_info": "", "premises": "Chiltern", "opening_hours": "", "has_bbq": "0", "address": " 84 Conness Street Chiltern 658 D3", "source": "", "state": "VIC", "polling_place_name": "Chiltern Senior Citizens Hall", "has_nothing": "0", "has_caek": "0", "gid": "103", "extra_info": ""}}, {"geometry": {"type": "Point", "coordinates": [147.005839, -36.140956]}, "type": "Feature", "properties": {"division": "Benambra District", "gx_id": "100", "booth_info": "", "premises": "Bonegilla", "opening_hours": "", "has_bbq": "0", "address": " Murray Valley Highway Bonegilla 36 B4", "source": "", "state": "VIC", "polling_place_name": "Bonegilla Hall", "has_nothing": "0", "has_caek": "0", "gid": "100", "extra_info": ""}}, {"geometry": {"type": "Point", "coordinates": [146.89013, -36.117016]}, "type": "Feature", "properties": {"division": "Benambra District", "gx_id": "101", "booth_info": "", "premises": "Wodonga", "opening_hours": "", "has_bbq": "0", "address": " Osburn Street Wodonga 653 N5", "source": "", "state": "VIC", "polling_place_name": "St. Augustine's Catholic Primary School", "has_nothing": "0", "has_caek": "0", "gid": "101", "extra_info": ""}}, {"geometry": {"type": "Point", "coordinates": [147.391171, -36.287427]}, "type": "Feature", "properties": {"division": "Benambra District", "gx_id": "106", "booth_info": "", "premises": "Tallangatta Valley", "opening_hours": "", "has_bbq": "0", "address": " Polmear Street Tallangatta Valley 36 H6", "source": "", "state": "VIC", "polling_place_name": "Tallangatta Valley Public Hall", "has_nothing": "0", "has_caek": "0", "gid": "106", "extra_info": ""}}, {"geometry": {"type": "Point", "coordinates": [147.050812, -36.533246]}, "type": "Feature", "properties": {"division": "Benambra District", "gx_id": "107", "booth_info": "", "premises": "Running Creek", "opening_hours": "", "has_bbq": "0", "address": " 5253 Kiewa Valley Highway Running Creek 50 B2", "source": "", "state": "VIC", "polling_place_name": "St Albans Parish Hall", "has_nothing": "0", "has_caek": "0", "gid": "107", "extra_info": ""}}, {"geometry": {"type": "Point", "coordinates": [147.170763, -36.742977]}, "type": "Feature", "properties": {"division": "Benambra District", "gx_id": "104", "booth_info": "", "premises": "Mt Beauty", "opening_hours": "", "has_bbq": "0", "address": " Kiewa Crescent Mt Beauty 660 H10", "source": "", "state": "VIC", "polling_place_name": "Mt Beauty Community Centre", "has_nothing": "0", "has_caek": "0", "gid": "104", "extra_info": ""}}, {"geometry": {"type": "Point", "coordinates": [146.754617, -36.403197]}, "type": "Feature", "properties": {"division": "Benambra District", "gx_id": "105", "booth_info": "", "premises": "Stanley", "opening_hours": "", "has_bbq": "0", "address": " Pioneer Road Stanley 35 D8", "source": "", "state": "VIC", "polling_place_name": "Stanley Safer Place", "has_nothing": "0", "has_caek": "0", "gid": "105", "extra_info": ""}}, {"geometry": {"type": "Point", "coordinates": [144.819875, -37.710928]}, "type": "Feature", "properties": {"division": "Niddrie District", "gx_id": "1212", "booth_info": "", "premises": "Calder Rise", "opening_hours": "", "has_bbq": "0", "address": " Augustines Way Keilor 14 E4", "source": "", "state": "VIC", "polling_place_name": "St Augustine's Primary School", "has_nothing": "0", "has_caek": "0", "gid": "1212", "extra_info": ""}}, {"geometry": {"type": "Point", "coordinates": [144.99674999999996, -37.755430000000004]}, "type": "Feature", "properties": {"division": "Northcote District", "gx_id": "1213", "booth_info": "", "premises": "Thornbury", "opening_hours": "", "has_bbq": "1", "address": " 16-22 Hutton Street Thornbury 30 E4", "source": "", "state": "VIC", "polling_place_name": "Thornbury Primary School", "has_nothing": "0", "has_caek": "1", "gid": "1213", "extra_info": ""}}, {"geometry": {"type": "Point", "coordinates": [144.880219, -37.725385]}, "type": "Feature", "properties": {"division": "Niddrie District", "gx_id": "1210", "booth_info": "", "premises": "Airport West", "opening_hours": "", "has_bbq": "0", "address": " 34 Roberts Road Airport West 15 J8", "source": "", "state": "VIC", "polling_place_name": "St Christopher's Catholic Primary School", "has_nothing": "0", "has_caek": "0", "gid": "1210", "extra_info": ""}}, {"geometry": {"type": "Point", "coordinates": [146.673874, -36.105522]}, "type": "Feature", "properties": {"division": "Benambra District", "gx_id": "99", "booth_info": "", "premises": "Barnawartha", "opening_hours": "", "has_bbq": "0", "address": " 38 High Street Barnawartha 658 J9", "source": "", "state": "VIC", "polling_place_name": "Barnawartha Soldiers Memorial Hall", "has_nothing": "0", "has_caek": "0", "gid": "99", "extra_info": ""}}, {"geometry": {"type": "Point", "coordinates": [146.46061, -36.05621]}, "type": "Feature", "properties": {"division": "Benambra District", "gx_id": "98", "booth_info": "", "premises": "Rutherglen", "opening_hours": "", "has_bbq": "0", "address": " 44-46 Murray Street Rutherglen 657 M9", "source": "", "state": "VIC", "polling_place_name": "Rutherglen Primary School", "has_nothing": "0", "has_caek": "0", "gid": "98", "extra_info": ""}}, {"geometry": {"type": "Point", "coordinates": [147.021447, -36.475328000000005]}, "type": "Feature", "properties": {"division": "Benambra District", "gx_id": "91", "booth_info": "", "premises": "Dederang", "opening_hours": "", "has_bbq": "0", "address": " Kiewa Valley Highway Dederang 36 B9", "source": "", "state": "VIC", "polling_place_name": "Dederang Multi-Purpose Building", "has_nothing": "0", "has_caek": "0", "gid": "91", "extra_info": ""}}, {"geometry": {"type": "Point", "coordinates": [146.393528, -36.0109]}, "type": "Feature", "properties": {"division": "Benambra District", "gx_id": "90", "booth_info": "", "premises": "Wahgunyah", "opening_hours": "", "has_bbq": "0", "address": " 33-35 Foord Street Wahgunyah 656 F6", "source": "", "state": "VIC", "polling_place_name": "Wahgunyah School of Arts Hall", "has_nothing": "0", "has_caek": "0", "gid": "90", "extra_info": ""}}, {"geometry": {"type": "Point", "coordinates": [146.69357, -36.35543]}, "type": "Feature", "properties": {"division": "Benambra District", "gx_id": "93", "booth_info": "", "premises": "Beechworth", "opening_hours": "", "has_bbq": "0", "address": " 17 Junction Road Beechworth 659 P3", "source": "", "state": "VIC", "polling_place_name": "Beechworth Primary School", "has_nothing": "0", "has_caek": "0", "gid": "93", "extra_info": ""}}, {"geometry": {"type": "Point", "coordinates": [147.737238, -35.963982]}, "type": "Feature", "properties": {"division": "Benambra District", "gx_id": "92", "booth_info": "", "premises": "Walwa", "opening_hours": "", "has_bbq": "0", "address": " Main Street Walwa 37 D1", "source": "", "state": "VIC", "polling_place_name": "Walwa Servicemen's Memorial Hall", "has_nothing": "0", "has_caek": "0", "gid": "92", "extra_info": ""}}, {"geometry": {"type": "Point", "coordinates": [147.028289, -36.327829]}, "type": "Feature", "properties": {"division": "Benambra District", "gx_id": "95", "booth_info": "", "premises": "Kergunyah", "opening_hours": "", "has_bbq": "0", "address": " Kergunyah Road Kergunyah 36 B7", "source": "", "state": "VIC", "polling_place_name": "Kergunyah Memorial Hall", "has_nothing": "0", "has_caek": "0", "gid": "95", "extra_info": ""}}, {"geometry": {"type": "Point", "coordinates": [147.778683, -36.18466]}, "type": "Feature", "properties": {"division": "Benambra District", "gx_id": "94", "booth_info": "", "premises": "Cudgewa", "opening_hours": "", "has_bbq": "0", "address": " 195 Main Street Cudgewa 37 E4", "source": "", "state": "VIC", "polling_place_name": "Cudgewa Mechanics Institute", "has_nothing": "0", "has_caek": "0", "gid": "94", "extra_info": ""}}, {"geometry": {"type": "Point", "coordinates": [147.14325, -36.6914]}, "type": "Feature", "properties": {"division": "Benambra District", "gx_id": "97", "booth_info": "", "premises": "Tawonga", "opening_hours": "", "has_bbq": "1", "address": " 91 Kiewa Valley Highway Tawonga 662 H3", "source": "", "state": "VIC", "polling_place_name": "Tawonga Primary School", "has_nothing": "0", "has_caek": "0", "gid": "97", "extra_info": ""}}, {"geometry": {"type": "Point", "coordinates": [147.376406, -36.537287]}, "type": "Feature", "properties": {"division": "Benambra District", "gx_id": "96", "booth_info": "", "premises": "Mitta Mitta", "opening_hours": "", "has_bbq": "0", "address": " 5543 Omeo Highway Mitta Mitta 50 G2", "source": "", "state": "VIC", "polling_place_name": "Mitta Mitta Mechanics Institute", "has_nothing": "0", "has_caek": "0", "gid": "96", "extra_info": ""}}, {"geometry": {"type": "Point", "coordinates": [143.89424, -37.55542]}, "type": "Feature", "properties": {"division": "Wendouree District", "gx_id": "1623", "booth_info": "", "premises": "Caledonian", "opening_hours": "", "has_bbq": "1", "address": " Thompson Street Brown Hill 567 L7", "source": "", "state": "VIC", "polling_place_name": "Caledonian Primary School", "has_nothing": "0", "has_caek": "0", "gid": "1623", "extra_info": ""}}, {"geometry": {"type": "Point", "coordinates": [145.15957599999996, -37.796811]}, "type": "Feature", "properties": {"division": "Warrandyte District", "gx_id": "1622", "booth_info": "", "premises": "Beverley Hills", "opening_hours": "", "has_bbq": "0", "address": " Cassowary Street Doncaster East 48 B3", "source": "", "state": "VIC", "polling_place_name": "Beverley Hills Primary School", "has_nothing": "0", "has_caek": "0", "gid": "1622", "extra_info": ""}}, {"geometry": {"type": "Point", "coordinates": [145.152478, -37.790732]}, "type": "Feature", "properties": {"division": "Warrandyte District", "gx_id": "1621", "booth_info": "", "premises": "Doncaster Heights", "opening_hours": "", "has_bbq": "1", "address": " 23 Leeds Street Doncaster East 47 K2", "source": "", "state": "VIC", "polling_place_name": "Ss Peter & Paul Catholic Parish", "has_nothing": "0", "has_caek": "1", "gid": "1621", "extra_info": ""}}, {"geometry": {"type": "Point", "coordinates": [145.198786, -37.791142]}, "type": "Feature", "properties": {"division": "Warrandyte District", "gx_id": "1620", "booth_info": "", "premises": "Donvale", "opening_hours": "", "has_bbq": "0", "address": " 156 Park Road Donvale 49 A2", "source": "", "state": "VIC", "polling_place_name": "Whitefriars College", "has_nothing": "0", "has_caek": "0", "gid": "1620", "extra_info": ""}}, {"geometry": {"type": "Point", "coordinates": [143.83122, -37.56602]}, "type": "Feature", "properties": {"division": "Wendouree District", "gx_id": "1627", "booth_info": "", "premises": "Ballarat South West", "opening_hours": "", "has_bbq": "0", "address": " 49 Inkerman Street Newington 565 T9", "source": "", "state": "VIC", "polling_place_name": "Urquhart Park Primary School", "has_nothing": "0", "has_caek": "0", "gid": "1627", "extra_info": ""}}, {"geometry": {"type": "Point", "coordinates": [143.813113, -37.557891]}, "type": "Feature", "properties": {"division": "Wendouree District", "gx_id": "1626", "booth_info": "", "premises": "Alfredton", "opening_hours": "", "has_bbq": "0", "address": " 29 Learmonth Street Alfredton 565 Q7", "source": "", "state": "VIC", "polling_place_name": "McCallum Community Centre", "has_nothing": "0", "has_caek": "0", "gid": "1626", "extra_info": ""}}, {"geometry": {"type": "Point", "coordinates": [143.845213, -37.575499]}, "type": "Feature", "properties": {"division": "Wendouree District", "gx_id": "1625", "booth_info": "", "premises": "Skipton Street", "opening_hours": "", "has_bbq": "0", "address": " corner Skipton and Darling Streets Redan 566 B11", "source": "", "state": "VIC", "polling_place_name": "Skipton Street Uniting Church", "has_nothing": "0", "has_caek": "0", "gid": "1625", "extra_info": ""}}, {"geometry": {"type": "Point", "coordinates": [143.830922, -37.538006]}, "type": "Feature", "properties": {"division": "Wendouree District", "gx_id": "1624", "booth_info": "", "premises": "Wendouree", "opening_hours": "", "has_bbq": "0", "address": " 201 Forest Street Wendouree 565 T3", "source": "", "state": "VIC", "polling_place_name": "Ballarat and Queens Grammar", "has_nothing": "0", "has_caek": "0", "gid": "1624", "extra_info": ""}}, {"geometry": {"type": "Point", "coordinates": [143.81856, -37.58491]}, "type": "Feature", "properties": {"division": "Wendouree District", "gx_id": "1629", "booth_info": "", "premises": "Delacombe", "opening_hours": "", "has_bbq": "0", "address": " 110-120 Greenhalghs Road Delacombe 571 Q1", "source": "", "state": "VIC", "polling_place_name": "Delacombe Primary School", "has_nothing": "0", "has_caek": "0", "gid": "1629", "extra_info": ""}}, {"geometry": {"type": "Point", "coordinates": [143.86978, -37.549839999999996]}, "type": "Feature", "properties": {"division": "Wendouree District", "gx_id": "1628", "booth_info": "", "premises": "Black Hill", "opening_hours": "", "has_bbq": "1", "address": " 601 Chisholm Street Black Hill 566 F6", "source": "", "state": "VIC", "polling_place_name": "Black Hill Primary School", "has_nothing": "0", "has_caek": "0", "gid": "1628", "extra_info": ""}}, {"geometry": {"type": "Point", "coordinates": [145.16162, -38.11662]}, "type": "Feature", "properties": {"division": "Frankston District", "gx_id": "559", "booth_info": "", "premises": "Aldercourt", "opening_hours": "", "has_bbq": "0", "address": " Silver Avenue (access via Wallowa Avenue) Frankston North 100 B7", "source": "", "state": "VIC", "polling_place_name": "Aldercourt Primary School", "has_nothing": "1", "has_caek": "0", "gid": "559", "extra_info": ""}}, {"geometry": {"type": "Point", "coordinates": [145.13884500000003, -38.135559]}, "type": "Feature", "properties": {"division": "Frankston District", "gx_id": "558", "booth_info": "", "premises": "John Paul College", "opening_hours": "", "has_bbq": "0", "address": " McMahons Road Frankston 99 G12", "source": "", "state": "VIC", "polling_place_name": "John Paul College", "has_nothing": "1", "has_caek": "0", "gid": "558", "extra_info": ""}}, {"geometry": {"type": "Point", "coordinates": [145.158374, -38.146691000000004]}, "type": "Feature", "properties": {"division": "Frankston District", "gx_id": "555", "booth_info": "", "premises": "Ballam Park", "opening_hours": "", "has_bbq": "1", "address": " 31 Belar Avenue (Access via Alexander Cres) Frankston 103 A3", "source": "", "state": "VIC", "polling_place_name": "McClelland College", "has_nothing": "0", "has_caek": "0", "gid": "555", "extra_info": ""}}, {"geometry": {"type": "Point", "coordinates": [145.14590499999997, -38.146351]}, "type": "Feature", "properties": {"division": "Frankston District", "gx_id": "554", "booth_info": "", "premises": "Frankston East", "opening_hours": "", "has_bbq": "0", "address": " Ashleigh Avenue Frankston 102 H3", "source": "", "state": "VIC", "polling_place_name": "Frankston East Primary School", "has_nothing": "1", "has_caek": "0", "gid": "554", "extra_info": ""}}, {"geometry": {"type": "Point", "coordinates": [145.14671, -38.16228]}, "type": "Feature", "properties": {"division": "Frankston District", "gx_id": "557", "booth_info": "", "premises": "Frankston Heights", "opening_hours": "", "has_bbq": "1", "address": " 10 Kalmia Street Frankston 102 J7", "source": "", "state": "VIC", "polling_place_name": "Frankston Heights Primary School", "has_nothing": "0", "has_caek": "1", "gid": "557", "extra_info": ""}}, {"geometry": {"type": "Point", "coordinates": [145.139076, -38.160987000000006]}, "type": "Feature", "properties": {"division": "Frankston District", "gx_id": "556", "booth_info": "", "premises": "Bruce Park", "opening_hours": "", "has_bbq": "0", "address": " Margate Avenue Frankston 102 G7", "source": "", "state": "VIC", "polling_place_name": "Bruce Park Hall", "has_nothing": "0", "has_caek": "0", "gid": "556", "extra_info": ""}}, {"geometry": {"type": "Point", "coordinates": [145.118187, -38.147518]}, "type": "Feature", "properties": {"division": "Frankston District", "gx_id": "551", "booth_info": "", "premises": "Frankston Beach", "opening_hours": "", "has_bbq": "0", "address": " corner Bay and High Streets Frankston 102 C3", "source": "", "state": "VIC", "polling_place_name": "St Pauls Anglican Church Hall", "has_nothing": "0", "has_caek": "0", "gid": "551", "extra_info": ""}}, {"geometry": {"type": "Point", "coordinates": [145.14672399999998, -38.173431]}, "type": "Feature", "properties": {"division": "Frankston District", "gx_id": "550", "booth_info": "", "premises": "Mt Erin", "opening_hours": "", "has_bbq": "1", "address": " Robinsons Road Frankston South 102 J10", "source": "", "state": "VIC", "polling_place_name": "Mount Erin College", "has_nothing": "0", "has_caek": "0", "gid": "550", "extra_info": ""}}, {"geometry": {"type": "Point", "coordinates": [145.1574, -38.12561999999999]}, "type": "Feature", "properties": {"division": "Frankston District", "gx_id": "553", "booth_info": "", "premises": "Frankston Forest", "opening_hours": "", "has_bbq": "1", "address": " Forster Avenue Frankston North 100 A9", "source": "", "state": "VIC", "polling_place_name": "Mahogany Rise Primary School", "has_nothing": "0", "has_caek": "1", "gid": "553", "extra_info": ""}}, {"geometry": {"type": "Point", "coordinates": [145.16636000000003, -38.14102]}, "type": "Feature", "properties": {"division": "Frankston District", "gx_id": "552", "booth_info": "", "premises": "Karingal Heights", "opening_hours": "", "has_bbq": "0", "address": " Havana Crescent Frankston 103 C1", "source": "", "state": "VIC", "polling_place_name": "Karingal Heights Primary School", "has_nothing": "0", "has_caek": "0", "gid": "552", "extra_info": ""}}, {"geometry": {"type": "Point", "coordinates": [144.85932, -37.74453]}, "type": "Feature", "properties": {"division": "Niddrie District", "gx_id": "1199", "booth_info": "", "premises": "Keilor East", "opening_hours": "", "has_bbq": "1", "address": " 2A Parkside Avenue Keilor East 27 D1", "source": "", "state": "VIC", "polling_place_name": "St Peters School", "has_nothing": "0", "has_caek": "0", "gid": "1199", "extra_info": ""}}, {"geometry": {"type": "Point", "coordinates": [144.702912, -38.319026]}, "type": "Feature", "properties": {"division": "Nepean District", "gx_id": "1198", "booth_info": "", "premises": "Portsea", "opening_hours": "", "has_bbq": "0", "address": " Point Nepean Road Portsea 156 C2", "source": "", "state": "VIC", "polling_place_name": "Point Nepean National Park Information Centre", "has_nothing": "0", "has_caek": "0", "gid": "1198", "extra_info": ""}}, {"geometry": {"type": "Point", "coordinates": [145.04538, -38.427605]}, "type": "Feature", "properties": {"division": "Nepean District", "gx_id": "1191", "booth_info": "", "premises": "Shoreham", "opening_hours": "", "has_bbq": "0", "address": " 67 Byrnes Road Shoreham 256 F8", "source": "", "state": "VIC", "polling_place_name": "Shoreham Hall", "has_nothing": "0", "has_caek": "0", "gid": "1191", "extra_info": ""}}, {"geometry": {"type": "Point", "coordinates": [144.838801, -38.42205]}, "type": "Feature", "properties": {"division": "Nepean District", "gx_id": "1190", "booth_info": "", "premises": "St Andrews Beach", "opening_hours": "", "has_bbq": "0", "address": " 99 Bass Meadows Boulevard St Andrews Beach 251 K6", "source": "", "state": "VIC", "polling_place_name": "St Andrews Recreation Hall", "has_nothing": "0", "has_caek": "0", "gid": "1190", "extra_info": ""}}, {"geometry": {"type": "Point", "coordinates": [144.857482, -38.369646]}, "type": "Feature", "properties": {"division": "Nepean District", "gx_id": "1193", "booth_info": "", "premises": "Tootgarook", "opening_hours": "", "has_bbq": "0", "address": " Carmichael Street (access via Wilkinson Street) Tootgarook 169 D4", "source": "", "state": "VIC", "polling_place_name": "Tootgarook Primary School", "has_nothing": "0", "has_caek": "0", "gid": "1193", "extra_info": ""}}, {"geometry": {"type": "Point", "coordinates": [145.015893, -38.473345]}, "type": "Feature", "properties": {"division": "Nepean District", "gx_id": "1192", "booth_info": "", "premises": "Flinders", "opening_hours": "", "has_bbq": "0", "address": " Cook Street Flinders 261 K8", "source": "", "state": "VIC", "polling_place_name": "Flinders Civic Hall", "has_nothing": "0", "has_caek": "0", "gid": "1192", "extra_info": ""}}, {"geometry": {"type": "Point", "coordinates": [144.90016, -38.356339]}, "type": "Feature", "properties": {"division": "Nepean District", "gx_id": "1195", "booth_info": "", "premises": "Rosebud", "opening_hours": "", "has_bbq": "0", "address": " 994 Point Nepean Road Rosebud 158 D12", "source": "", "state": "VIC", "polling_place_name": "Rosebud Memorial Hall", "has_nothing": "0", "has_caek": "0", "gid": "1195", "extra_info": ""}}, {"geometry": {"type": "Point", "coordinates": [144.95964999999998, -38.339639999999996]}, "type": "Feature", "properties": {"division": "Nepean District", "gx_id": "1194", "booth_info": "", "premises": "Dromana", "opening_hours": "", "has_bbq": "0", "address": " McCulloch Street Dromana 159 G8", "source": "", "state": "VIC", "polling_place_name": "Dromana Primary School", "has_nothing": "0", "has_caek": "0", "gid": "1194", "extra_info": ""}}, {"geometry": {"type": "Point", "coordinates": [144.966904, -38.334207]}, "type": "Feature", "properties": {"division": "Nepean District", "gx_id": "1197", "booth_info": "", "premises": "Dromana Beach", "opening_hours": "", "has_bbq": "0", "address": " 43 Pier Street Dromana 159 J6", "source": "", "state": "VIC", "polling_place_name": "Dromana Senior Citizens Club", "has_nothing": "0", "has_caek": "0", "gid": "1197", "extra_info": ""}}, {"geometry": {"type": "Point", "coordinates": [144.821498, -38.371891]}, "type": "Feature", "properties": {"division": "Nepean District", "gx_id": "1196", "booth_info": "", "premises": "Rye", "opening_hours": "", "has_bbq": "0", "address": " 12 Napier Street Rye 168 F4", "source": "", "state": "VIC", "polling_place_name": "Rye Civic Hall", "has_nothing": "0", "has_caek": "0", "gid": "1196", "extra_info": ""}}, {"geometry": {"type": "Point", "coordinates": [145.30748, -38.06499]}, "type": "Feature", "properties": {"division": "Narre Warren South District", "gx_id": "1177", "booth_info": "", "premises": "Hillsmeade", "opening_hours": "", "has_bbq": "0", "address": " 82 The Promenade Narre Warren South 130 E5", "source": "", "state": "VIC", "polling_place_name": "Hillsmeade Primary School", "has_nothing": "0", "has_caek": "0", "gid": "1177", "extra_info": ""}}, {"geometry": {"type": "Point", "coordinates": [145.297612, -38.057309]}, "type": "Feature", "properties": {"division": "Narre Warren South District", "gx_id": "1176", "booth_info": "", "premises": "Oakgrove", "opening_hours": "", "has_bbq": "0", "address": " 89-101 Oakgrove Drive Narre Warren South 130 C2", "source": "", "state": "VIC", "polling_place_name": "Oakgrove Community Centre", "has_nothing": "0", "has_caek": "0", "gid": "1176", "extra_info": ""}}, {"geometry": {"type": "Point", "coordinates": [145.25294, -38.03046]}, "type": "Feature", "properties": {"division": "Narre Warren South District", "gx_id": "1175", "booth_info": "", "premises": "Hampton Park", "opening_hours": "", "has_bbq": "1", "address": " Regans Road Hampton Park 96 C7", "source": "", "state": "VIC", "polling_place_name": "Hampton Park Primary School", "has_nothing": "0", "has_caek": "1", "gid": "1175", "extra_info": ""}}, {"geometry": {"type": "Point", "coordinates": [145.33365, -38.04955]}, "type": "Feature", "properties": {"division": "Narre Warren South District", "gx_id": "1174", "booth_info": "", "premises": "Centre Road", "opening_hours": "", "has_bbq": "1", "address": " 35 Gwendoline Drive Berwick 111 A12", "source": "", "state": "VIC", "polling_place_name": "Berwick Fields Primary School", "has_nothing": "0", "has_caek": "0", "gid": "1174", "extra_info": "Sausages have sold out! Stall gone!"}}, {"geometry": {"type": "Point", "coordinates": [145.34696, -38.06743]}, "type": "Feature", "properties": {"division": "Narre Warren South District", "gx_id": "1173", "booth_info": "", "premises": "Berwick Chase", "opening_hours": "", "has_bbq": "0", "address": " 72 Viewgrand Drive Berwick 131 D5", "source": "", "state": "VIC", "polling_place_name": "Berwick Chase Primary School", "has_nothing": "0", "has_caek": "0", "gid": "1173", "extra_info": ""}}, {"geometry": {"type": "Point", "coordinates": [145.25915000000003, -38.03492]}, "type": "Feature", "properties": {"division": "Narre Warren South District", "gx_id": "1172", "booth_info": "", "premises": "Hampton Park East", "opening_hours": "", "has_bbq": "0", "address": " 58-96 Fordholm Road (access via Campbell Drive) Hampton Park 96 D9", "source": "", "state": "VIC", "polling_place_name": "Hampton Park Secondary College", "has_nothing": "0", "has_caek": "0", "gid": "1172", "extra_info": ""}}, {"geometry": {"type": "Point", "coordinates": [145.27926, -38.03359999999999]}, "type": "Feature", "properties": {"division": "Narre Warren South District", "gx_id": "1171", "booth_info": "", "premises": "Kilberry Valley", "opening_hours": "", "has_bbq": "0", "address": " Kilberry Boulevard Hampton Park 96 J8", "source": "", "state": "VIC", "polling_place_name": "Kilberry Valley Primary School", "has_nothing": "0", "has_caek": "0", "gid": "1171", "extra_info": ""}}, {"geometry": {"type": "Point", "coordinates": [145.346428, -38.052434]}, "type": "Feature", "properties": {"division": "Narre Warren South District", "gx_id": "1170", "booth_info": "", "premises": "Berwick South", "opening_hours": "", "has_bbq": "1", "address": " Bemersyde Drive Berwick 131 D1", "source": "", "state": "VIC", "polling_place_name": "Brentwood Park Primary School", "has_nothing": "0", "has_caek": "0", "gid": "1170", "extra_info": ""}}, {"geometry": {"type": "Point", "coordinates": [144.913133, -38.361638]}, "type": "Feature", "properties": {"division": "Nepean District", "gx_id": "1179", "booth_info": "", "premises": "Rosebud South", "opening_hours": "", "has_bbq": "0", "address": " 25 Leon Avenue Rosebud 170 F2", "source": "", "state": "VIC", "polling_place_name": "Karingal Community Living - Konnections", "has_nothing": "0", "has_caek": "0", "gid": "1179", "extra_info": ""}}, {"geometry": {"type": "Point", "coordinates": [145.286818, -38.049559]}, "type": "Feature", "properties": {"division": "Narre Warren South District", "gx_id": "1178", "booth_info": "", "premises": "Narre Warren South", "opening_hours": "", "has_bbq": "0", "address": " 79-125 Amberly Park Drive (access via Ormond Road) Narre Warren South 3805 129 K1", "source": "", "state": "VIC", "polling_place_name": "Narre Warren South P-12 College", "has_nothing": "0", "has_caek": "0", "gid": "1178", "extra_info": ""}}, {"geometry": {"type": "Point", "coordinates": [145.08279999999996, -37.98000999999999]}, "type": "Feature", "properties": {"division": "Mordialloc District", "gx_id": "1007", "booth_info": "", "premises": "Mentone Park", "opening_hours": "", "has_bbq": "0", "address": " 40359 Broome Avenue Mentone 87 E5", "source": "", "state": "VIC", "polling_place_name": "Mentone Park Primary School", "has_nothing": "0", "has_caek": "0", "gid": "1007", "extra_info": ""}}, {"geometry": {"type": "Point", "coordinates": [145.138767, -38.045161]}, "type": "Feature", "properties": {"division": "Mordialloc District", "gx_id": "1006", "booth_info": "", "premises": "Chelsea Heights", "opening_hours": "", "has_bbq": "1", "address": " 194 Thames Promenade Chelsea Heights 93 G11", "source": "", "state": "VIC", "polling_place_name": "Chelsea Heights Primary School", "has_nothing": "0", "has_caek": "0", "gid": "1006", "extra_info": ""}}, {"geometry": {"type": "Point", "coordinates": [145.116178, -38.050771000000005]}, "type": "Feature", "properties": {"division": "Mordialloc District", "gx_id": "1005", "booth_info": "", "premises": "Chelsea", "opening_hours": "", "has_bbq": "0", "address": " 316 Station Street Chelsea 97 B1", "source": "", "state": "VIC", "polling_place_name": "Chelsea Town Hall", "has_nothing": "0", "has_caek": "0", "gid": "1005", "extra_info": ""}}, {"geometry": {"type": "Point", "coordinates": [144.95436, -37.743101]}, "type": "Feature", "properties": {"division": "Pascoe Vale District", "gx_id": "1285", "booth_info": "", "premises": "Coburg South", "opening_hours": "", "has_bbq": "0", "address": " 6 Bellevue Street Coburg 29 F1", "source": "", "state": "VIC", "polling_place_name": "Carinya Society.", "has_nothing": "0", "has_caek": "0", "gid": "1285", "extra_info": ""}}, {"geometry": {"type": "Point", "coordinates": [144.967607, -37.741619]}, "type": "Feature", "properties": {"division": "Pascoe Vale District", "gx_id": "1284", "booth_info": "", "premises": "Coburg", "opening_hours": "", "has_bbq": "1", "address": " Bell Street Coburg 17 J12", "source": "", "state": "VIC", "polling_place_name": "Coburg Primary School - Junior Campus", "has_nothing": "0", "has_caek": "1", "gid": "1284", "extra_info": ""}}, {"geometry": {"type": "Point", "coordinates": [144.948203, -37.721559]}, "type": "Feature", "properties": {"division": "Pascoe Vale District", "gx_id": "1287", "booth_info": "", "premises": "Pascoe Vale North", "opening_hours": "", "has_bbq": "0", "address": " Kent Rd (access via Derby Street) Pascoe Vale 17 D7", "source": "", "state": "VIC", "polling_place_name": "Pascoe Vale North Primary School", "has_nothing": "0", "has_caek": "0", "gid": "1287", "extra_info": ""}}, {"geometry": {"type": "Point", "coordinates": [144.943069, -37.740917]}, "type": "Feature", "properties": {"division": "Pascoe Vale District", "gx_id": "1286", "booth_info": "", "premises": "Pascoe Vale Central", "opening_hours": "", "has_bbq": "0", "address": " 71 Grandview Avenue (access via Waverley Parade) Pascoe Vale South 17 C12", "source": "", "state": "VIC", "polling_place_name": "Antonine College - St Joseph's Campus", "has_nothing": "0", "has_caek": "0", "gid": "1286", "extra_info": ""}}, {"geometry": {"type": "Point", "coordinates": [144.92053, -37.69936]}, "type": "Feature", "properties": {"division": "Pascoe Vale District", "gx_id": "1281", "booth_info": "", "premises": "Glenroy North", "opening_hours": "", "has_bbq": "0", "address": " 208 Hilton Street Glenroy 16 H1", "source": "", "state": "VIC", "polling_place_name": "Glenroy Specialist School", "has_nothing": "0", "has_caek": "0", "gid": "1281", "extra_info": ""}}, {"geometry": {"type": "Point", "coordinates": [144.926856, -37.705546]}, "type": "Feature", "properties": {"division": "Pascoe Vale District", "gx_id": "1280", "booth_info": "", "premises": "Glenroy", "opening_hours": "", "has_bbq": "0", "address": " 120 Glenroy Road (access via Cardinal Road) Glenroy 16 K2", "source": "", "state": "VIC", "polling_place_name": "Glenroy College", "has_nothing": "0", "has_caek": "0", "gid": "1280", "extra_info": ""}}, {"geometry": {"type": "Point", "coordinates": [144.93622, -37.71606]}, "type": "Feature", "properties": {"division": "Pascoe Vale District", "gx_id": "1283", "booth_info": "", "premises": "Hadfield", "opening_hours": "", "has_bbq": "0", "address": " 40452 Pascoe Street Pascoe Vale 17 A5", "source": "", "state": "VIC", "polling_place_name": "Westbreen Primary School", "has_nothing": "0", "has_caek": "0", "gid": "1283", "extra_info": ""}}, {"geometry": {"type": "Point", "coordinates": [144.908699, -37.705729]}, "type": "Feature", "properties": {"division": "Pascoe Vale District", "gx_id": "1282", "booth_info": "", "premises": "Glenroy West", "opening_hours": "", "has_bbq": "0", "address": " York Street Glenroy 16 E2", "source": "", "state": "VIC", "polling_place_name": "Glenroy West Primary School", "has_nothing": "0", "has_caek": "0", "gid": "1282", "extra_info": ""}}, {"geometry": {"type": "Point", "coordinates": [145.075953, -37.979051]}, "type": "Feature", "properties": {"division": "Mordialloc District", "gx_id": "1003", "booth_info": "", "premises": "Mentone North", "opening_hours": "", "has_bbq": "0", "address": " 38 Levanto Street Mentone 87 C5", "source": "", "state": "VIC", "polling_place_name": "Mentone Scout Hall", "has_nothing": "0", "has_caek": "0", "gid": "1003", "extra_info": ""}}, {"geometry": {"type": "Point", "coordinates": [144.58844, -37.49086]}, "type": "Feature", "properties": {"division": "Macedon District", "gx_id": "879", "booth_info": "", "premises": "Gisborne", "opening_hours": "", "has_bbq": "0", "address": " 35 Fisher Street Gisborne 636 C8", "source": "", "state": "VIC", "polling_place_name": "Gisborne Primary School", "has_nothing": "0", "has_caek": "0", "gid": "879", "extra_info": ""}}, {"geometry": {"type": "Point", "coordinates": [144.958984, -37.721808]}, "type": "Feature", "properties": {"division": "Pascoe Vale District", "gx_id": "1289", "booth_info": "", "premises": "Merlynston", "opening_hours": "", "has_bbq": "0", "address": " Glyndon Avenue Coburg North 17 G7", "source": "", "state": "VIC", "polling_place_name": "St Linus Church Hall", "has_nothing": "0", "has_caek": "0", "gid": "1289", "extra_info": ""}}, {"geometry": {"type": "Point", "coordinates": [144.951874, -37.735685]}, "type": "Feature", "properties": {"division": "Pascoe Vale District", "gx_id": "1288", "booth_info": "", "premises": "Coburg North", "opening_hours": "", "has_bbq": "1", "address": " 180 O'Hea Street Coburg 17 E11", "source": "", "state": "VIC", "polling_place_name": "Coburg North Primary School", "has_nothing": "0", "has_caek": "1", "gid": "1288", "extra_info": ""}}, {"geometry": {"type": "Point", "coordinates": [145.0941, -37.98964]}, "type": "Feature", "properties": {"division": "Mordialloc District", "gx_id": "1002", "booth_info": "", "premises": "Parkdale East", "opening_hours": "", "has_bbq": "0", "address": " Warren Road Mordialloc East 87 G8", "source": "", "state": "VIC", "polling_place_name": "Parkdale Secondary College", "has_nothing": "0", "has_caek": "0", "gid": "1002", "extra_info": ""}}, {"geometry": {"type": "Point", "coordinates": [144.759823, -37.716619]}, "type": "Feature", "properties": {"division": "Sydenham District", "gx_id": "1579", "booth_info": "", "premises": "Taylors Hill", "opening_hours": "", "has_bbq": "0", "address": " corner Loddon Drive and Watervale Boulevard Taylors Hill 13 A5", "source": "", "state": "VIC", "polling_place_name": "Taylors Hill Primary School", "has_nothing": "0", "has_caek": "0", "gid": "1579", "extra_info": ""}}, {"geometry": {"type": "Point", "coordinates": [144.79273299999997, -37.707103]}, "type": "Feature", "properties": {"division": "Sydenham District", "gx_id": "1578", "booth_info": "", "premises": "Taylors Lakes Central", "opening_hours": "", "has_bbq": "0", "address": " 12784 Parmelia Drive Taylors Lakes 13 J3", "source": "", "state": "VIC", "polling_place_name": "Taylors Lakes Secondary College", "has_nothing": "0", "has_caek": "0", "gid": "1578", "extra_info": ""}}, {"geometry": {"type": "Point", "coordinates": [145.707341, -38.369791]}, "type": "Feature", "properties": {"division": "Gippsland South District", "gx_id": "689", "booth_info": "", "premises": "Loch", "opening_hours": "", "has_bbq": "0", "address": " Smith Street Loch 96 D7", "source": "", "state": "VIC", "polling_place_name": "Loch Public Hall", "has_nothing": "0", "has_caek": "0", "gid": "689", "extra_info": ""}}, {"geometry": {"type": "Point", "coordinates": [145.086458, -38.004085]}, "type": "Feature", "properties": {"division": "Mordialloc District", "gx_id": "1001", "booth_info": "", "premises": "Mordialloc East", "opening_hours": "", "has_bbq": "0", "address": " 37 Albert Street Mordialloc 87 E12", "source": "", "state": "VIC", "polling_place_name": "Allan McLean Hall", "has_nothing": "0", "has_caek": "0", "gid": "1001", "extra_info": ""}}, {"geometry": {"type": "Point", "coordinates": [144.7621, -37.70218]}, "type": "Feature", "properties": {"division": "Sydenham District", "gx_id": "1573", "booth_info": "", "premises": "Sydenham", "opening_hours": "", "has_bbq": "0", "address": " Community Hub Sydenham 13 B1", "source": "", "state": "VIC", "polling_place_name": "Sydenham Hillside Primary School - Sydenham Campus", "has_nothing": "0", "has_caek": "0", "gid": "1573", "extra_info": ""}}, {"geometry": {"type": "Point", "coordinates": [144.777331, -37.718169]}, "type": "Feature", "properties": {"division": "Sydenham District", "gx_id": "1572", "booth_info": "", "premises": "Delahey", "opening_hours": "", "has_bbq": "0", "address": " 29-35 Goldsmith Avenue Delahey 13 F6", "source": "", "state": "VIC", "polling_place_name": "MacKellar Primary School", "has_nothing": "0", "has_caek": "0", "gid": "1572", "extra_info": ""}}, {"geometry": {"type": "Point", "coordinates": [144.89082000000002, -37.68921]}, "type": "Feature", "properties": {"division": "Sunbury District", "gx_id": "1571", "booth_info": "", "premises": "Gladstone Park", "opening_hours": "", "has_bbq": "0", "address": " Taylor Drive Gladstone Park 6 A10", "source": "", "state": "VIC", "polling_place_name": "Gladstone Park Secondary College", "has_nothing": "0", "has_caek": "0", "gid": "1571", "extra_info": ""}}, {"geometry": {"type": "Point", "coordinates": [145.71286, -38.51511]}, "type": "Feature", "properties": {"division": "Gippsland South District", "gx_id": "686", "booth_info": "", "premises": "Kongwak", "opening_hours": "", "has_bbq": "0", "address": " 1445 Wonthaggi-Korumburra Road Kongwak 102 E2", "source": "", "state": "VIC", "polling_place_name": "Kongwak Primary School", "has_nothing": "0", "has_caek": "0", "gid": "686", "extra_info": ""}}, {"geometry": {"type": "Point", "coordinates": [144.77478600000003, -37.68901000000001]}, "type": "Feature", "properties": {"division": "Sydenham District", "gx_id": "1577", "booth_info": "", "premises": "Taylors Lakes North", "opening_hours": "", "has_bbq": "0", "address": " 39-57 Robertsons Road Taylors Lakes 3 E10", "source": "", "state": "VIC", "polling_place_name": "Overnewton Anglican Community", "has_nothing": "0", "has_caek": "0", "gid": "1577", "extra_info": ""}}, {"geometry": {"type": "Point", "coordinates": [144.771428, -37.699071]}, "type": "Feature", "properties": {"division": "Sydenham District", "gx_id": "1576", "booth_info": "", "premises": "Sydenham East", "opening_hours": "", "has_bbq": "0", "address": " 380 Sydenham Road (access via Pecks Road) Sydenham 13 D1", "source": "", "state": "VIC", "polling_place_name": "Catholic Regional College Sydenham", "has_nothing": "0", "has_caek": "0", "gid": "1576", "extra_info": ""}}, {"geometry": {"type": "Point", "coordinates": [144.73867, -37.71118]}, "type": "Feature", "properties": {"division": "Sydenham District", "gx_id": "1575", "booth_info": "", "premises": "Springside", "opening_hours": "", "has_bbq": "0", "address": " Becca Way Caroline Springs 356 G4", "source": "", "state": "VIC", "polling_place_name": "Caroline Springs College - Springside Campus", "has_nothing": "0", "has_caek": "0", "gid": "1575", "extra_info": ""}}, {"geometry": {"type": "Point", "coordinates": [144.793223, -37.709293]}, "type": "Feature", "properties": {"division": "Sydenham District", "gx_id": "1574", "booth_info": "", "premises": "Taylors Lakes", "opening_hours": "", "has_bbq": "0", "address": " Chichester Drive Taylors Lakes 13 J3", "source": "", "state": "VIC", "polling_place_name": "Taylors Lakes Primary School", "has_nothing": "0", "has_caek": "0", "gid": "1574", "extra_info": ""}}, {"geometry": {"type": "Point", "coordinates": [147.702843, -36.95504699999999]}, "type": "Feature", "properties": {"division": "Gippsland East District", "gx_id": "623", "booth_info": "", "premises": "Benambra", "opening_hours": "", "has_bbq": "0", "address": " Gibbo Street Benambra VR 51 C9", "source": "", "state": "VIC", "polling_place_name": "Benambra Public Hall", "has_nothing": "0", "has_caek": "0", "gid": "623", "extra_info": ""}}, {"geometry": {"type": "Point", "coordinates": [144.996841, -37.783513]}, "type": "Feature", "properties": {"division": "Northcote District", "gx_id": "1226", "booth_info": "", "premises": "Westgarth", "opening_hours": "", "has_bbq": "1", "address": " corner High and Walker Streets Northcote 30 E12", "source": "", "state": "VIC", "polling_place_name": "All Saints Parish Hall", "has_nothing": "0", "has_caek": "0", "gid": "1226", "extra_info": ""}}, {"geometry": {"type": "Point", "coordinates": [146.783088, -37.893026000000006]}, "type": "Feature", "properties": {"division": "Gippsland East District", "gx_id": "621", "booth_info": "", "premises": "Coongulla", "opening_hours": "", "has_bbq": "0", "address": " 5 Gillum Road Coongulla 82 E8", "source": "", "state": "VIC", "polling_place_name": "Coongulla Hall", "has_nothing": "0", "has_caek": "0", "gid": "621", "extra_info": ""}}, {"geometry": {"type": "Point", "coordinates": [144.67978, -37.46122]}, "type": "Feature", "properties": {"division": "Macedon District", "gx_id": "873", "booth_info": "", "premises": "Riddell", "opening_hours": "", "has_bbq": "1", "address": " 69-77 Main Road Riddells Creek 425 F2", "source": "", "state": "VIC", "polling_place_name": "Riddells Creek Primary School", "has_nothing": "0", "has_caek": "1", "gid": "873", "extra_info": ""}}, {"geometry": {"type": "Point", "coordinates": [145.022243, -37.771814]}, "type": "Feature", "properties": {"division": "Northcote District", "gx_id": "1224", "booth_info": "", "premises": "Alphington North", "opening_hours": "", "has_bbq": "1", "address": " 34 Separation Street Fairfield 31 A8", "source": "", "state": "VIC", "polling_place_name": "Alfred Nuttall Kindergarten", "has_nothing": "0", "has_caek": "1", "gid": "1224", "extra_info": ""}}, {"geometry": {"type": "Point", "coordinates": [146.751051, -37.895041]}, "type": "Feature", "properties": {"division": "Gippsland East District", "gx_id": "627", "booth_info": "", "premises": "Glenmaggie", "opening_hours": "", "has_bbq": "0", "address": " 21 Glenfalloch Road Glenmaggie 82 E8", "source": "", "state": "VIC", "polling_place_name": "Glenmaggie Mechanics Institute", "has_nothing": "0", "has_caek": "0", "gid": "627", "extra_info": ""}}, {"geometry": {"type": "Point", "coordinates": [144.997701, -37.774756]}, "type": "Feature", "properties": {"division": "Northcote District", "gx_id": "1222", "booth_info": "", "premises": "Northcote", "opening_hours": "", "has_bbq": "0", "address": " 189 High Street Northcote 30 E9", "source": "", "state": "VIC", "polling_place_name": "Northcote Town Hall", "has_nothing": "1", "has_caek": "0", "gid": "1222", "extra_info": ""}}, {"geometry": {"type": "Point", "coordinates": [147.6081, -37.82454]}, "type": "Feature", "properties": {"division": "Gippsland East District", "gx_id": "625", "booth_info": "", "premises": "Bairnsdale West", "opening_hours": "", "has_bbq": "0", "address": " Wallace Street Bairnsdale 688 E7", "source": "", "state": "VIC", "polling_place_name": "Bairnsdale West Primary School", "has_nothing": "0", "has_caek": "0", "gid": "625", "extra_info": ""}}, {"geometry": {"type": "Point", "coordinates": [144.98756999999998, -37.76402]}, "type": "Feature", "properties": {"division": "Northcote District", "gx_id": "1220", "booth_info": "", "premises": "Croxton", "opening_hours": "", "has_bbq": "1", "address": " 159-165 Beaconsfield Parade Northcote 30 C6", "source": "", "state": "VIC", "polling_place_name": "Croxton School", "has_nothing": "0", "has_caek": "1", "gid": "1220", "extra_info": ""}}, {"geometry": {"type": "Point", "coordinates": [145.651407, -37.753524]}, "type": "Feature", "properties": {"division": "Eildon District", "gx_id": "407", "booth_info": "", "premises": "Millgrove", "opening_hours": "", "has_bbq": "0", "address": " Cavanagh Road Millgrove 289 C4", "source": "", "state": "VIC", "polling_place_name": "Millwarra Primary School (Millgrove Campus)", "has_nothing": "0", "has_caek": "0", "gid": "407", "extra_info": ""}}, {"geometry": {"type": "Point", "coordinates": [144.993451, -37.803608]}, "type": "Feature", "properties": {"division": "Richmond District", "gx_id": "1370", "booth_info": "", "premises": "Abbotsford", "opening_hours": "", "has_bbq": "1", "address": " 4 Eddy Court Abbotsford 2C H10", "source": "", "state": "VIC", "polling_place_name": "Collingwood Senior Citizens Centre", "has_nothing": "0", "has_caek": "0", "gid": "1370", "extra_info": ""}}, {"geometry": {"type": "Point", "coordinates": [144.99618899999996, -37.812239]}, "type": "Feature", "properties": {"division": "Richmond District", "gx_id": "1373", "booth_info": "", "premises": "Richmond North 106", "opening_hours": "", "has_bbq": "0", "address": " 106 Elizabeth Street Richmond 2G K2", "source": "", "state": "VIC", "polling_place_name": "Community Hall 106", "has_nothing": "0", "has_caek": "0", "gid": "1373", "extra_info": ""}}, {"geometry": {"type": "Point", "coordinates": [144.979901, -37.802119999999995]}, "type": "Feature", "properties": {"division": "Richmond District", "gx_id": "1372", "booth_info": "", "premises": "Atherton Gardens", "opening_hours": "", "has_bbq": "0", "address": " 201 Napier Street Fitzroy 2C B9", "source": "", "state": "VIC", "polling_place_name": "Fitzroy Town Hall", "has_nothing": "1", "has_caek": "0", "gid": "1372", "extra_info": ""}}, {"geometry": {"type": "Point", "coordinates": [144.98150999999996, -37.7996]}, "type": "Feature", "properties": {"division": "Richmond District", "gx_id": "1375", "booth_info": "", "premises": "Fitzroy", "opening_hours": "", "has_bbq": "1", "address": " 319 George Street Fitzroy 2C C7", "source": "", "state": "VIC", "polling_place_name": "Fitzroy Primary School", "has_nothing": "0", "has_caek": "1", "gid": "1375", "extra_info": ""}}, {"geometry": {"type": "Point", "coordinates": [145.00727699999996, -37.814834]}, "type": "Feature", "properties": {"division": "Richmond District", "gx_id": "1374", "booth_info": "", "premises": "Richmond Central", "opening_hours": "", "has_bbq": "1", "address": " corner Davison and Kent Streets Richmond 2H E4", "source": "", "state": "VIC", "polling_place_name": "Yarra Primary School Hall", "has_nothing": "0", "has_caek": "0", "gid": "1374", "extra_info": ""}}, {"geometry": {"type": "Point", "coordinates": [144.998439, -37.812512]}, "type": "Feature", "properties": {"division": "Richmond District", "gx_id": "1377", "booth_info": "", "premises": "Richmond North 110", "opening_hours": "", "has_bbq": "0", "address": " 110 Elizabeth Street Richmond 2G K2", "source": "", "state": "VIC", "polling_place_name": "Community Hall 110", "has_nothing": "0", "has_caek": "0", "gid": "1377", "extra_info": ""}}, {"geometry": {"type": "Point", "coordinates": [144.990369, -37.80281299999999]}, "type": "Feature", "properties": {"division": "Richmond District", "gx_id": "1376", "booth_info": "", "premises": "Collingwood", "opening_hours": "", "has_bbq": "0", "address": " corner Cromwell Street and McCutcheon Way Collingwood 2C G9", "source": "", "state": "VIC", "polling_place_name": "Collingwood Secondary College", "has_nothing": "0", "has_caek": "0", "gid": "1376", "extra_info": ""}}, {"geometry": {"type": "Point", "coordinates": [145.20578299999997, -37.828813]}, "type": "Feature", "properties": {"division": "Ringwood District", "gx_id": "1379", "booth_info": "", "premises": "Mitcham South", "opening_hours": "", "has_bbq": "1", "address": " 27 Churinga Avenue Mitcham 49 B12", "source": "", "state": "VIC", "polling_place_name": "Rangeview Primary School", "has_nothing": "0", "has_caek": "1", "gid": "1379", "extra_info": ""}}, {"geometry": {"type": "Point", "coordinates": [144.997758, -37.821932000000004]}, "type": "Feature", "properties": {"division": "Richmond District", "gx_id": "1378", "booth_info": "", "premises": "Richmond", "opening_hours": "", "has_bbq": "1", "address": " 326 Church Street (access via The Vaucluse) Richmond 2H A7", "source": "", "state": "VIC", "polling_place_name": "St Ignatius Church Hall", "has_nothing": "0", "has_caek": "0", "gid": "1378", "extra_info": ""}}, {"geometry": {"type": "Point", "coordinates": [144.999501, -37.840213]}, "type": "Feature", "properties": {"division": "Prahran District", "gx_id": "1342", "booth_info": "", "premises": "Hawksburn", "opening_hours": "", "has_bbq": "0", "address": " 338 Toorak Road South Yarra 2M A6", "source": "", "state": "VIC", "polling_place_name": "Toorak-South Yarra Library", "has_nothing": "1", "has_caek": "0", "gid": "1342", "extra_info": ""}}, {"geometry": {"type": "Point", "coordinates": [145.372464, -37.649596]}, "type": "Feature", "properties": {"division": "Eildon District", "gx_id": "409", "booth_info": "", "premises": "Yarra Glen", "opening_hours": "", "has_bbq": "0", "address": " 35 Symond Street Yarra Glen 79 G4", "source": "", "state": "VIC", "polling_place_name": "Yarra Glen Primary School", "has_nothing": "0", "has_caek": "0", "gid": "409", "extra_info": ""}}, {"geometry": {"type": "Point", "coordinates": [146.13787, -37.301954]}, "type": "Feature", "properties": {"division": "Eildon District", "gx_id": "408", "booth_info": "", "premises": "Jamieson", "opening_hours": "", "has_bbq": "0", "address": " 15 Perkins Street Jamieson 330 C10", "source": "", "state": "VIC", "polling_place_name": "Jamieson Memorial Hall", "has_nothing": "0", "has_caek": "0", "gid": "408", "extra_info": ""}}, {"geometry": {"type": "Point", "coordinates": [144.992476, -37.858273]}, "type": "Feature", "properties": {"division": "Prahran District", "gx_id": "1343", "booth_info": "", "premises": "St Kilda East", "opening_hours": "", "has_bbq": "0", "address": " 2 Chapel Street St Kilda 2P H4", "source": "", "state": "VIC", "polling_place_name": "All Saints St Kilda East", "has_nothing": "0", "has_caek": "0", "gid": "1343", "extra_info": ""}}, {"geometry": {"type": "Point", "coordinates": [145.009481, -37.852297]}, "type": "Feature", "properties": {"division": "Prahran District", "gx_id": "1344", "booth_info": "", "premises": "Orrong", "opening_hours": "", "has_bbq": "1", "address": " 7 Wynnstay Road East Prahran 2M F12", "source": "", "state": "VIC", "polling_place_name": "Our Lady of Lourdes School", "has_nothing": "0", "has_caek": "1", "gid": "1344", "extra_info": ""}}, {"geometry": {"type": "Point", "coordinates": [145.007383, -37.863222]}, "type": "Feature", "properties": {"division": "Prahran District", "gx_id": "1345", "booth_info": "", "premises": "Alma", "opening_hours": "", "has_bbq": "0", "address": " 200 Alma Road St Kilda East 58 H9", "source": "", "state": "VIC", "polling_place_name": "Alma Road Community House", "has_nothing": "1", "has_caek": "0", "gid": "1345", "extra_info": "No bbq as at 9:30am"}}, {"geometry": {"type": "Point", "coordinates": [145.500229, -36.975545]}, "type": "Feature", "properties": {"division": "Euroa District", "gx_id": "456", "booth_info": "", "premises": "Ruffy", "opening_hours": "", "has_bbq": "0", "address": " Nolans Road Ruffy 47 A9", "source": "", "state": "VIC", "polling_place_name": "Ruffy Public Hall", "has_nothing": "0", "has_caek": "0", "gid": "456", "extra_info": ""}}, {"geometry": {"type": "Point", "coordinates": [145.009713, -37.844907]}, "type": "Feature", "properties": {"division": "Prahran District", "gx_id": "1347", "booth_info": "", "premises": "Toorak Central", "opening_hours": "", "has_bbq": "1", "address": " Canterbury Road Toorak 2M F8", "source": "", "state": "VIC", "polling_place_name": "Toorak Primary School", "has_nothing": "0", "has_caek": "1", "gid": "1347", "extra_info": "Artisan market!"}}, {"geometry": {"type": "Point", "coordinates": [145.23824799999997, -37.990724]}, "type": "Feature", "properties": {"division": "Dandenong District", "gx_id": "379", "booth_info": "", "premises": "Doveton West", "opening_hours": "", "has_bbq": "0", "address": " 100 Power Road Doveton 90 J8", "source": "", "state": "VIC", "polling_place_name": "Holy Family Parish / Primary School", "has_nothing": "0", "has_caek": "0", "gid": "379", "extra_info": ""}}, {"geometry": {"type": "Point", "coordinates": [145.20553, -37.96503]}, "type": "Feature", "properties": {"division": "Dandenong District", "gx_id": "378", "booth_info": "", "premises": "Dandenong North", "opening_hours": "", "has_bbq": "0", "address": " 42004 Oakwood Avenue Dandenong North 90 B1", "source": "", "state": "VIC", "polling_place_name": "Lyndale Greens Primary School", "has_nothing": "0", "has_caek": "0", "gid": "378", "extra_info": ""}}, {"geometry": {"type": "Point", "coordinates": [145.272819, -37.766502]}, "type": "Feature", "properties": {"division": "Croydon District", "gx_id": "371", "booth_info": "", "premises": "Yarra Road", "opening_hours": "", "has_bbq": "0", "address": " Yarra Road Croydon North 36 H7", "source": "", "state": "VIC", "polling_place_name": "Yarra Road Primary School", "has_nothing": "0", "has_caek": "0", "gid": "371", "extra_info": ""}}, {"geometry": {"type": "Point", "coordinates": [145.29137, -37.786005]}, "type": "Feature", "properties": {"division": "Croydon District", "gx_id": "370", "booth_info": "", "premises": "Lincoln", "opening_hours": "", "has_bbq": "1", "address": " 2 Dixon Avenue Croydon 51 B1", "source": "", "state": "VIC", "polling_place_name": "Monkami Centre Inc", "has_nothing": "0", "has_caek": "0", "gid": "370", "extra_info": "Fresh flowers and Christmas trees for sale."}}, {"geometry": {"type": "Point", "coordinates": [145.20675, -37.95778]}, "type": "Feature", "properties": {"division": "Dandenong District", "gx_id": "373", "booth_info": "", "premises": "Lyndale", "opening_hours": "", "has_bbq": "0", "address": " 170 Gladstone Road Dandenong North 81 B11", "source": "", "state": "VIC", "polling_place_name": "Lyndale Secondary College", "has_nothing": "0", "has_caek": "0", "gid": "373", "extra_info": ""}}, {"geometry": {"type": "Point", "coordinates": [145.326608, -37.79631599999999]}, "type": "Feature", "properties": {"division": "Croydon District", "gx_id": "372", "booth_info": "", "premises": "Mooroolbark South", "opening_hours": "", "has_bbq": "1", "address": " Pembroke Road Mooroolbark 51 K3", "source": "", "state": "VIC", "polling_place_name": "Pembroke Primary School", "has_nothing": "0", "has_caek": "0", "gid": "372", "extra_info": ""}}, {"geometry": {"type": "Point", "coordinates": [145.20042, -37.98074]}, "type": "Feature", "properties": {"division": "Dandenong District", "gx_id": "375", "booth_info": "", "premises": "Dandenong West", "opening_hours": "", "has_bbq": "0", "address": " 32 Birdwood Avenue (access from Benga Avenue) Dandenong 90 A6", "source": "", "state": "VIC", "polling_place_name": "Dandenong West Primary School", "has_nothing": "0", "has_caek": "0", "gid": "375", "extra_info": ""}}, {"geometry": {"type": "Point", "coordinates": [145.19152999999997, -37.97029]}, "type": "Feature", "properties": {"division": "Dandenong District", "gx_id": "374", "booth_info": "", "premises": "Yarraman Oaks", "opening_hours": "", "has_bbq": "0", "address": " 27 Liege Avenue Noble Park 89 J3", "source": "", "state": "VIC", "polling_place_name": "Yarraman Oaks Primary School", "has_nothing": "0", "has_caek": "0", "gid": "374", "extra_info": ""}}, {"geometry": {"type": "Point", "coordinates": [145.21194099999997, -37.997968]}, "type": "Feature", "properties": {"division": "Dandenong District", "gx_id": "377", "booth_info": "", "premises": "Dandenong South", "opening_hours": "", "has_bbq": "0", "address": " William Avenue Dandenong 90 D10", "source": "", "state": "VIC", "polling_place_name": "Dandenong South Primary School", "has_nothing": "0", "has_caek": "0", "gid": "377", "extra_info": ""}}, {"geometry": {"type": "Point", "coordinates": [145.21682, -37.96029999999999]}, "type": "Feature", "properties": {"division": "Dandenong District", "gx_id": "376", "booth_info": "", "premises": "Wooranna Park", "opening_hours": "", "has_bbq": "0", "address": " 89-105 Carlton Road Dandenong North 81 E12", "source": "", "state": "VIC", "polling_place_name": "Wooranna Park Primary School", "has_nothing": "0", "has_caek": "0", "gid": "376", "extra_info": ""}}, {"geometry": {"type": "Point", "coordinates": [145.712382, -37.321078]}, "type": "Feature", "properties": {"division": "Eildon District", "gx_id": "393", "booth_info": "", "premises": "Taggerty", "opening_hours": "", "has_bbq": "0", "address": " 5 Taggerty-Thornton Road Taggerty 62 D7", "source": "", "state": "VIC", "polling_place_name": "Taggerty  Hall", "has_nothing": "0", "has_caek": "0", "gid": "393", "extra_info": ""}}, {"geometry": {"type": "Point", "coordinates": [145.749163, -37.511962]}, "type": "Feature", "properties": {"division": "Eildon District", "gx_id": "392", "booth_info": "", "premises": "Marysville", "opening_hours": "", "has_bbq": "0", "address": " 15 Falls Road Marysville 680 H10", "source": "", "state": "VIC", "polling_place_name": "Marysville Primary School", "has_nothing": "0", "has_caek": "0", "gid": "392", "extra_info": ""}}, {"geometry": {"type": "Point", "coordinates": [145.616433, -37.10152599999999]}, "type": "Feature", "properties": {"division": "Eildon District", "gx_id": "391", "booth_info": "", "premises": "Yarck", "opening_hours": "", "has_bbq": "0", "address": " Maroondah Highway Yarck 62 B3", "source": "", "state": "VIC", "polling_place_name": "Yarck CFA Fire Station", "has_nothing": "0", "has_caek": "0", "gid": "391", "extra_info": ""}}, {"geometry": {"type": "Point", "coordinates": [145.426113, -37.21141]}, "type": "Feature", "properties": {"division": "Eildon District", "gx_id": "390", "booth_info": "", "premises": "Yea", "opening_hours": "", "has_bbq": "0", "address": " High Street Yea 681 R9", "source": "", "state": "VIC", "polling_place_name": "Yea Shire Hall", "has_nothing": "0", "has_caek": "0", "gid": "390", "extra_info": ""}}, {"geometry": {"type": "Point", "coordinates": [145.215125, -37.691649]}, "type": "Feature", "properties": {"division": "Eildon District", "gx_id": "397", "booth_info": "", "premises": "Kangaroo Ground", "opening_hours": "", "has_bbq": "1", "address": " 10 Graham Road Kangaroo Ground 271 E11", "source": "", "state": "VIC", "polling_place_name": "Kangaroo Ground Primary School", "has_nothing": "0", "has_caek": "1", "gid": "397", "extra_info": ""}}, {"geometry": {"type": "Point", "coordinates": [145.517397, -37.653437]}, "type": "Feature", "properties": {"division": "Eildon District", "gx_id": "396", "booth_info": "", "premises": "Healesville Central", "opening_hours": "", "has_bbq": "0", "address": " 235-237 Maroondah Highway Healesville 721 R12", "source": "", "state": "VIC", "polling_place_name": "Healesville Memorial Hall", "has_nothing": "0", "has_caek": "0", "gid": "396", "extra_info": ""}}, {"geometry": {"type": "Point", "coordinates": [145.2025, -37.57899999999999]}, "type": "Feature", "properties": {"division": "Eildon District", "gx_id": "395", "booth_info": "", "premises": "Arthurs Creek", "opening_hours": "", "has_bbq": "0", "address": " 900 Arthurs Creek Road Arthurs Creek 79 E3", "source": "", "state": "VIC", "polling_place_name": "Arthurs Creek Primary School", "has_nothing": "0", "has_caek": "0", "gid": "395", "extra_info": ""}}, {"geometry": {"type": "Point", "coordinates": [146.0864, -37.05516999999999]}, "type": "Feature", "properties": {"division": "Eildon District", "gx_id": "394", "booth_info": "", "premises": "Mansfield", "opening_hours": "", "has_bbq": "0", "address": " 35 Highett Street Mansfield 330 D4", "source": "", "state": "VIC", "polling_place_name": "Mansfield Sporting Complex", "has_nothing": "0", "has_caek": "0", "gid": "394", "extra_info": ""}}, {"geometry": {"type": "Point", "coordinates": [145.29136, -37.31692]}, "type": "Feature", "properties": {"division": "Eildon District", "gx_id": "399", "booth_info": "", "premises": "Flowerdale", "opening_hours": "", "has_bbq": "0", "address": " 3377 Whittlesea-Yea Road Flowerdale 418 H5", "source": "", "state": "VIC", "polling_place_name": "Flowerdale Primary School", "has_nothing": "0", "has_caek": "0", "gid": "399", "extra_info": ""}}, {"geometry": {"type": "Point", "coordinates": [145.41352, -37.59234]}, "type": "Feature", "properties": {"division": "Eildon District", "gx_id": "398", "booth_info": "", "premises": "Dixons Creek", "opening_hours": "", "has_bbq": "0", "address": " 1815 Melba Highway Dixons Creek 79 H3", "source": "", "state": "VIC", "polling_place_name": "Dixons Creek Primary School", "has_nothing": "0", "has_caek": "0", "gid": "398", "extra_info": ""}}, {"geometry": {"type": "Point", "coordinates": [145.033207, -37.838789]}, "type": "Feature", "properties": {"division": "Malvern District", "gx_id": "895", "booth_info": "", "premises": "Kooyong", "opening_hours": "", "has_bbq": "0", "address": " 454 Glenferrie Road Kooyong 59D3", "source": "", "state": "VIC", "polling_place_name": "Vision Australia Kooyong", "has_nothing": "0", "has_caek": "0", "gid": "895", "extra_info": ""}}, {"geometry": {"type": "Point", "coordinates": [145.10939799999997, -37.760524999999994]}, "type": "Feature", "properties": {"division": "Bulleen District", "gx_id": "245", "booth_info": "", "premises": "Templestowe Valley", "opening_hours": "", "has_bbq": "1", "address": " 15 Birchwood Avenue Templestowe Lower 33 A5", "source": "", "state": "VIC", "polling_place_name": "Templestowe Valley Primary School", "has_nothing": "0", "has_caek": "0", "gid": "245", "extra_info": ""}}, {"geometry": {"type": "Point", "coordinates": [145.090204, -37.767308]}, "type": "Feature", "properties": {"division": "Bulleen District", "gx_id": "244", "booth_info": "", "premises": "Manningham", "opening_hours": "", "has_bbq": "0", "address": " Egan Drive Bulleen 32 F7", "source": "", "state": "VIC", "polling_place_name": "St Clement of Rome Primary School", "has_nothing": "0", "has_caek": "0", "gid": "244", "extra_info": ""}}, {"geometry": {"type": "Point", "coordinates": [145.12283, -37.77999100000001]}, "type": "Feature", "properties": {"division": "Bulleen District", "gx_id": "247", "booth_info": "", "premises": "St Gregory's", "opening_hours": "", "has_bbq": "1", "address": " 396 Manningham Road Doncaster 33 D11", "source": "", "state": "VIC", "polling_place_name": "St. Gregory's the Great Primary School", "has_nothing": "0", "has_caek": "0", "gid": "247", "extra_info": ""}}, {"geometry": {"type": "Point", "coordinates": [145.141742, -37.755842]}, "type": "Feature", "properties": {"division": "Bulleen District", "gx_id": "246", "booth_info": "", "premises": "Templestowe Park", "opening_hours": "", "has_bbq": "0", "address": " 399 Church Road Templestowe 33 H4", "source": "", "state": "VIC", "polling_place_name": "Templestowe Park Primary School", "has_nothing": "0", "has_caek": "0", "gid": "246", "extra_info": ""}}, {"geometry": {"type": "Point", "coordinates": [145.104913, -37.771845]}, "type": "Feature", "properties": {"division": "Bulleen District", "gx_id": "241", "booth_info": "", "premises": "Lower Templestowe", "opening_hours": "", "has_bbq": "0", "address": " 221 Manningham Road Templestowe Lower 32 K9", "source": "", "state": "VIC", "polling_place_name": "Bulleen Heights School Manningham Road Campus", "has_nothing": "0", "has_caek": "0", "gid": "241", "extra_info": ""}}, {"geometry": {"type": "Point", "coordinates": [145.11334, -37.793279999999996]}, "type": "Feature", "properties": {"division": "Bulleen District", "gx_id": "240", "booth_info": "", "premises": "Doncaster South", "opening_hours": "", "has_bbq": "1", "address": " Heyington Avenue Doncaster 47 B2", "source": "", "state": "VIC", "polling_place_name": "Birralee Primary School", "has_nothing": "0", "has_caek": "0", "gid": "240", "extra_info": ""}}, {"geometry": {"type": "Point", "coordinates": [145.103124, -37.777699]}, "type": "Feature", "properties": {"division": "Bulleen District", "gx_id": "243", "booth_info": "", "premises": "Doncaster West", "opening_hours": "", "has_bbq": "0", "address": " 3 Vista Street Bulleen 32 J10", "source": "", "state": "VIC", "polling_place_name": "Vista Valley Kindergarten", "has_nothing": "0", "has_caek": "0", "gid": "243", "extra_info": ""}}, {"geometry": {"type": "Point", "coordinates": [145.12966999999998, -37.7868]}, "type": "Feature", "properties": {"division": "Bulleen District", "gx_id": "242", "booth_info": "", "premises": "Doncaster", "opening_hours": "", "has_bbq": "1", "address": " 40513 Council Street Doncaster 33 E12", "source": "", "state": "VIC", "polling_place_name": "Doncaster Primary School", "has_nothing": "0", "has_caek": "0", "gid": "242", "extra_info": ""}}, {"geometry": {"type": "Point", "coordinates": [145.06150899999997, -37.707613]}, "type": "Feature", "properties": {"division": "Bundoora District", "gx_id": "249", "booth_info": "", "premises": "Bundoora", "opening_hours": "", "has_bbq": "0", "address": " 53 Balmoral Avenue Bundoora 19 K3", "source": "", "state": "VIC", "polling_place_name": "Bundoora Secondary College", "has_nothing": "0", "has_caek": "0", "gid": "249", "extra_info": ""}}, {"geometry": {"type": "Point", "coordinates": [145.129681, -37.75559299999999]}, "type": "Feature", "properties": {"division": "Bulleen District", "gx_id": "248", "booth_info": "", "premises": "Templestowe", "opening_hours": "", "has_bbq": "1", "address": " 104 Atkinson Street Street Templestowe 33 E4", "source": "", "state": "VIC", "polling_place_name": "Manningham Uniting Church Hall", "has_nothing": "0", "has_caek": "0", "gid": "248", "extra_info": ""}}, {"geometry": {"type": "Point", "coordinates": [145.15767, -37.817539999999994]}, "type": "Feature", "properties": {"division": "Box Hill District", "gx_id": "179", "booth_info": "", "premises": "Blackburn North", "opening_hours": "", "has_bbq": "1", "address": " corner Whitehorse and Surrey Roads Blackburn 48 A9", "source": "", "state": "VIC", "polling_place_name": "Blackburn Primary School", "has_nothing": "0", "has_caek": "1", "gid": "179", "extra_info": ""}}, {"geometry": {"type": "Point", "coordinates": [145.127444, -37.818848]}, "type": "Feature", "properties": {"division": "Box Hill District", "gx_id": "178", "booth_info": "", "premises": "Box Hill", "opening_hours": "", "has_bbq": "1", "address": " 1030 Whitehorse Road Box Hill 47 E9", "source": "", "state": "VIC", "polling_place_name": "St Peter's Anglican Church Hall", "has_nothing": "0", "has_caek": "1", "gid": "178", "extra_info": "St Peter's Mini Market"}}, {"geometry": {"type": "Point", "coordinates": [145.12331, -37.80079]}, "type": "Feature", "properties": {"division": "Box Hill District", "gx_id": "177", "booth_info": "", "premises": "Box Hill North", "opening_hours": "", "has_bbq": "0", "address": " Elizabeth Street Box Hill North 47 D4", "source": "", "state": "VIC", "polling_place_name": "Box Hill North Primary School", "has_nothing": "0", "has_caek": "0", "gid": "177", "extra_info": ""}}, {"geometry": {"type": "Point", "coordinates": [145.14989, -37.81037]}, "type": "Feature", "properties": {"division": "Box Hill District", "gx_id": "176", "booth_info": "", "premises": "Middlefield", "opening_hours": "", "has_bbq": "1", "address": " 60 Springfield Road Blackburn 47 K7", "source": "", "state": "VIC", "polling_place_name": "Blackburn High School", "has_nothing": "0", "has_caek": "1", "gid": "176", "extra_info": ""}}, {"geometry": {"type": "Point", "coordinates": [145.036034, -37.93369899999999]}, "type": "Feature", "properties": {"division": "Bentleigh District", "gx_id": "175", "booth_info": "", "premises": "Moorabbin Central", "opening_hours": "", "has_bbq": "0", "address": " 985 Nepean Highway Moorabbin 77 D5", "source": "", "state": "VIC", "polling_place_name": "City of Kingston Town Hall", "has_nothing": "0", "has_caek": "0", "gid": "175", "extra_info": ""}}, {"geometry": {"type": "Point", "coordinates": [145.03181, -37.93896]}, "type": "Feature", "properties": {"division": "Bentleigh District", "gx_id": "174", "booth_info": "", "premises": "Berendale", "opening_hours": "", "has_bbq": "0", "address": " 2 Berend Street Hampton East 77 C6", "source": "", "state": "VIC", "polling_place_name": "Berendale School", "has_nothing": "0", "has_caek": "0", "gid": "174", "extra_info": ""}}, {"geometry": {"type": "Point", "coordinates": [145.04901, -37.93254]}, "type": "Feature", "properties": {"division": "Bentleigh District", "gx_id": "173", "booth_info": "", "premises": "Moorabbin South", "opening_hours": "", "has_bbq": "0", "address": " 16 Tucker Road Bentleigh 77 G4", "source": "", "state": "VIC", "polling_place_name": "Tucker Road Primary School", "has_nothing": "0", "has_caek": "0", "gid": "173", "extra_info": ""}}, {"geometry": {"type": "Point", "coordinates": [145.03366999999997, -37.907]}, "type": "Feature", "properties": {"division": "Bentleigh District", "gx_id": "172", "booth_info": "", "premises": "Ormond West", "opening_hours": "", "has_bbq": "0", "address": " 121 Wheatley Road (access via Murray Road) Ormond 68 C9", "source": "", "state": "VIC", "polling_place_name": "Ormond Primary School", "has_nothing": "0", "has_caek": "0", "gid": "172", "extra_info": ""}}, {"geometry": {"type": "Point", "coordinates": [145.07324, -37.92034]}, "type": "Feature", "properties": {"division": "Bentleigh District", "gx_id": "171", "booth_info": "", "premises": "Coatesville", "opening_hours": "", "has_bbq": "1", "address": " 21 Mackie Road Bentleigh East 78 B1", "source": "", "state": "VIC", "polling_place_name": "Coatesville Primary School", "has_nothing": "0", "has_caek": "1", "gid": "171", "extra_info": ""}}, {"geometry": {"type": "Point", "coordinates": [145.035849, -37.910924]}, "type": "Feature", "properties": {"division": "Bentleigh District", "gx_id": "170", "booth_info": "", "premises": "McKinnon", "opening_hours": "", "has_bbq": "0", "address": " 118 McKinnon Road McKinnon 68 D10", "source": "", "state": "VIC", "polling_place_name": "McKinnon Public Hall", "has_nothing": "0", "has_caek": "0", "gid": "170", "extra_info": ""}}, {"geometry": {"type": "Point", "coordinates": [145.94237299999998, -38.477309]}, "type": "Feature", "properties": {"division": "Gippsland South District", "gx_id": "656", "booth_info": "", "premises": "Leongatha", "opening_hours": "", "has_bbq": "0", "address": " corner Smith and Watt Streets Leongatha 710 B9", "source": "", "state": "VIC", "polling_place_name": "Dakers Centre", "has_nothing": "0", "has_caek": "0", "gid": "656", "extra_info": ""}}, {"geometry": {"type": "Point", "coordinates": [146.09393499999996, -38.533983]}, "type": "Feature", "properties": {"division": "Gippsland South District", "gx_id": "657", "booth_info": "", "premises": "Dumbalk", "opening_hours": "", "has_bbq": "0", "address": " Farmers Road Dumbalk 103 B2", "source": "", "state": "VIC", "polling_place_name": "Dumbalk Public Hall", "has_nothing": "0", "has_caek": "0", "gid": "657", "extra_info": ""}}, {"geometry": {"type": "Point", "coordinates": [146.876849, -38.525698]}, "type": "Feature", "properties": {"division": "Gippsland South District", "gx_id": "654", "booth_info": "", "premises": "Woodside", "opening_hours": "", "has_bbq": "0", "address": " Woodside Beach Road Woodside 104 G2", "source": "", "state": "VIC", "polling_place_name": "Woodside Public Hall", "has_nothing": "0", "has_caek": "0", "gid": "654", "extra_info": ""}}, {"geometry": {"type": "Point", "coordinates": [146.154921, -38.400802]}, "type": "Feature", "properties": {"division": "Gippsland South District", "gx_id": "655", "booth_info": "", "premises": "Mirboo North", "opening_hours": "", "has_bbq": "0", "address": " 30 Ridgway Street Mirboo North 710 F4", "source": "", "state": "VIC", "polling_place_name": "Mirboo North Town Hall", "has_nothing": "0", "has_caek": "0", "gid": "655", "extra_info": ""}}, {"geometry": {"type": "Point", "coordinates": [144.173006, -38.245118]}, "type": "Feature", "properties": {"division": "South Barwon District", "gx_id": "1506", "booth_info": "", "premises": "Moriac", "opening_hours": "", "has_bbq": "1", "address": " 830 Hendy Main Road Moriac 453 D3", "source": "", "state": "VIC", "polling_place_name": "Moriac Community Centre", "has_nothing": "0", "has_caek": "1", "gid": "1506", "extra_info": ""}}, {"geometry": {"type": "Point", "coordinates": [147.08905999999996, -38.10805]}, "type": "Feature", "properties": {"division": "Gippsland South District", "gx_id": "653", "booth_info": "", "premises": "Sale East", "opening_hours": "", "has_bbq": "1", "address": " 99 Patten Street Sale 693 T7", "source": "", "state": "VIC", "polling_place_name": "Araluen Primary School", "has_nothing": "0", "has_caek": "0", "gid": "653", "extra_info": "Car boot sale!"}}, {"geometry": {"type": "Point", "coordinates": [144.032823, -36.17889099999999]}, "type": "Feature", "properties": {"division": "Murray Plains District", "gx_id": "1110", "booth_info": "", "premises": "Yarrawalla South", "opening_hours": "", "has_bbq": "0", "address": " Yarrawalla South Road Yarrawalla 30 B6", "source": "", "state": "VIC", "polling_place_name": "Yarrawalla South Community Centre", "has_nothing": "0", "has_caek": "0", "gid": "1110", "extra_info": ""}}, {"geometry": {"type": "Point", "coordinates": [145.00388, -37.78679]}, "type": "Feature", "properties": {"division": "Richmond District", "gx_id": "1367", "booth_info": "", "premises": "Clifton Hill", "opening_hours": "", "has_bbq": "1", "address": " 193 Spensley Street Clifton Hill 2D C1", "source": "", "state": "VIC", "polling_place_name": "Spensley St  Primary School", "has_nothing": "0", "has_caek": "0", "gid": "1367", "extra_info": ""}}, {"geometry": {"type": "Point", "coordinates": [144.31708, -38.17216]}, "type": "Feature", "properties": {"division": "South Barwon District", "gx_id": "1504", "booth_info": "", "premises": "Highton", "opening_hours": "", "has_bbq": "1", "address": " 218 Roslyn Road Highton 451 C10", "source": "", "state": "VIC", "polling_place_name": "Highton Primary School", "has_nothing": "0", "has_caek": "1", "gid": "1504", "extra_info": ""}}, {"geometry": {"type": "Point", "coordinates": [144.311733, -38.186036]}, "type": "Feature", "properties": {"division": "South Barwon District", "gx_id": "1505", "booth_info": "", "premises": "Waurn Ponds", "opening_hours": "", "has_bbq": "1", "address": " 18 Burdekin Street (access via Thornhill Road) Highton 465 B2", "source": "", "state": "VIC", "polling_place_name": "Christian College Geelong", "has_nothing": "0", "has_caek": "0", "gid": "1505", "extra_info": ""}}, {"geometry": {"type": "Point", "coordinates": [145.018633, -37.715936]}, "type": "Feature", "properties": {"division": "Preston District", "gx_id": "1364", "booth_info": "", "premises": "Reservoir North East", "opening_hours": "", "has_bbq": "0", "address": " 7A Strathmerton Street Reservoir 19 A6", "source": "", "state": "VIC", "polling_place_name": "East Reservoir Senior Citizens' Centre", "has_nothing": "0", "has_caek": "0", "gid": "1364", "extra_info": ""}}, {"geometry": {"type": "Point", "coordinates": [145.001726, -37.819487]}, "type": "Feature", "properties": {"division": "Richmond District", "gx_id": "1365", "booth_info": "", "premises": "Hosie", "opening_hours": "", "has_bbq": "0", "address": " Hosie Street Richmond 2H B6", "source": "", "state": "VIC", "polling_place_name": "Richmond Senior Citizens Centre", "has_nothing": "0", "has_caek": "0", "gid": "1365", "extra_info": ""}}, {"geometry": {"type": "Point", "coordinates": [145.97429, -38.16573999999999]}, "type": "Feature", "properties": {"division": "Narracan District", "gx_id": "1115", "booth_info": "", "premises": "Nilma", "opening_hours": "", "has_bbq": "0", "address": " 76 Bloomfield Road Nilma 96 H4", "source": "", "state": "VIC", "polling_place_name": "Nilma Primary School", "has_nothing": "0", "has_caek": "0", "gid": "1115", "extra_info": ""}}, {"geometry": {"type": "Point", "coordinates": [145.00376799999998, -37.744807]}, "type": "Feature", "properties": {"division": "Preston District", "gx_id": "1362", "booth_info": "", "premises": "Preston", "opening_hours": "", "has_bbq": "1", "address": " 1 Clifton Grove Preston 30 G1", "source": "", "state": "VIC", "polling_place_name": "Sacred Heart School", "has_nothing": "0", "has_caek": "1", "gid": "1362", "extra_info": ""}}, {"geometry": {"type": "Point", "coordinates": [145.274, -37.73064]}, "type": "Feature", "properties": {"division": "Warrandyte District", "gx_id": "1618", "booth_info": "", "premises": "Wonga Park", "opening_hours": "", "has_bbq": "1", "address": " 41 Dudley Road Wonga Park 24 H9", "source": "", "state": "VIC", "polling_place_name": "Wonga Park Primary School", "has_nothing": "0", "has_caek": "1", "gid": "1618", "extra_info": ""}}, {"geometry": {"type": "Point", "coordinates": [145.214674, -37.72942299999999]}, "type": "Feature", "properties": {"division": "Warrandyte District", "gx_id": "1619", "booth_info": "", "premises": "North Warrandyte", "opening_hours": "", "has_bbq": "0", "address": " 184 Research-Warrandyte Road North Warrandyte 23 D9", "source": "", "state": "VIC", "polling_place_name": "North Warrandyte Family Centre", "has_nothing": "0", "has_caek": "0", "gid": "1619", "extra_info": ""}}, {"geometry": {"type": "Point", "coordinates": [145.24662, -37.774749]}, "type": "Feature", "properties": {"division": "Warrandyte District", "gx_id": "1616", "booth_info": "", "premises": "Warranwood", "opening_hours": "", "has_bbq": "1", "address": " 1 Wellington Park Drive Warranwood 36 B9", "source": "", "state": "VIC", "polling_place_name": "Warranwood Primary School", "has_nothing": "0", "has_caek": "1", "gid": "1616", "extra_info": ""}}, {"geometry": {"type": "Point", "coordinates": [145.15887, -37.78217]}, "type": "Feature", "properties": {"division": "Warrandyte District", "gx_id": "1617", "booth_info": "", "premises": "Doncaster East", "opening_hours": "", "has_bbq": "0", "address": " 20 George Street Doncaster East 34 B11", "source": "", "state": "VIC", "polling_place_name": "East Doncaster Secondary College", "has_nothing": "0", "has_caek": "0", "gid": "1617", "extra_info": ""}}, {"geometry": {"type": "Point", "coordinates": [145.234369, -37.768341]}, "type": "Feature", "properties": {"division": "Warrandyte District", "gx_id": "1614", "booth_info": "", "premises": "Warrandyte South", "opening_hours": "", "has_bbq": "1", "address": " 58-64 Hall Road Warrandyte South 35 J8", "source": "", "state": "VIC", "polling_place_name": "Youth Dimension", "has_nothing": "0", "has_caek": "1", "gid": "1614", "extra_info": ""}}, {"geometry": {"type": "Point", "coordinates": [145.16674999999998, -37.766673]}, "type": "Feature", "properties": {"division": "Warrandyte District", "gx_id": "1615", "booth_info": "", "premises": "The Pines", "opening_hours": "", "has_bbq": "0", "address": " 460 Blackburn Road Doncaster East 34 D7", "source": "", "state": "VIC", "polling_place_name": "Deep Creek Anglican Church Hall", "has_nothing": "0", "has_caek": "0", "gid": "1615", "extra_info": ""}}, {"geometry": {"type": "Point", "coordinates": [145.148064, -37.782124]}, "type": "Feature", "properties": {"division": "Warrandyte District", "gx_id": "1612", "booth_info": "", "premises": "Doncaster Gardens", "opening_hours": "", "has_bbq": "0", "address": " corner Sandhurst Avenue and Dehnert Street Doncaster East 33 K11", "source": "", "state": "VIC", "polling_place_name": "Doncaster Gardens Primary School", "has_nothing": "0", "has_caek": "0", "gid": "1612", "extra_info": ""}}, {"geometry": {"type": "Point", "coordinates": [145.21488499999998, -37.77904]}, "type": "Feature", "properties": {"division": "Warrandyte District", "gx_id": "1613", "booth_info": "", "premises": "Park Orchards", "opening_hours": "", "has_bbq": "0", "address": " Aviemore Avenue Park Orchards 35 D10", "source": "", "state": "VIC", "polling_place_name": "Park Orchards Community Centre", "has_nothing": "0", "has_caek": "0", "gid": "1613", "extra_info": ""}}, {"geometry": {"type": "Point", "coordinates": [145.17366, -37.80049]}, "type": "Feature", "properties": {"division": "Warrandyte District", "gx_id": "1610", "booth_info": "", "premises": "Tunstall", "opening_hours": "", "has_bbq": "1", "address": " Elata Street (access via Argyle Street) Donvale 48 E4", "source": "", "state": "VIC", "polling_place_name": "Donvale Primary School", "has_nothing": "0", "has_caek": "1", "gid": "1610", "extra_info": ""}}, {"geometry": {"type": "Point", "coordinates": [145.16552, -37.78746]}, "type": "Feature", "properties": {"division": "Warrandyte District", "gx_id": "1611", "booth_info": "", "premises": "Donburn", "opening_hours": "", "has_bbq": "0", "address": " 24-28 Colchester Drive Doncaster East 48 C1", "source": "", "state": "VIC", "polling_place_name": "Donburn Primary School", "has_nothing": "0", "has_caek": "0", "gid": "1611", "extra_info": ""}}, {"geometry": {"type": "Point", "coordinates": [143.630975, -35.464892]}, "type": "Feature", "properties": {"division": "Murray Plains District", "gx_id": "1114", "booth_info": "", "premises": "Lake Boga", "opening_hours": "", "has_bbq": "0", "address": " Cemetery Road Lake Boga 14 C9", "source": "", "state": "VIC", "polling_place_name": "Lake Boga Community Centre", "has_nothing": "0", "has_caek": "0", "gid": "1114", "extra_info": ""}}, {"geometry": {"type": "Point", "coordinates": [145.004219, -37.71811499999999]}, "type": "Feature", "properties": {"division": "Preston District", "gx_id": "1363", "booth_info": "", "premises": "Reservoir Central", "opening_hours": "", "has_bbq": "1", "address": " corner Viola and Olive Streets Reservoir 18 G6", "source": "", "state": "VIC", "polling_place_name": "St Gabriel's School Hall", "has_nothing": "0", "has_caek": "1", "gid": "1363", "extra_info": "Election day fete"}}, {"geometry": {"type": "Point", "coordinates": [145.93817, -38.09935]}, "type": "Feature", "properties": {"division": "Narracan District", "gx_id": "1142", "booth_info": "", "premises": "Buln Buln", "opening_hours": "", "has_bbq": "0", "address": " 15 Old Sale Road Buln Buln 96 H3", "source": "", "state": "VIC", "polling_place_name": "Buln Buln Primary School", "has_nothing": "0", "has_caek": "0", "gid": "1142", "extra_info": ""}}, {"geometry": {"type": "Point", "coordinates": [146.14479299999996, -38.003596]}, "type": "Feature", "properties": {"division": "Narracan District", "gx_id": "1143", "booth_info": "", "premises": "Hill End", "opening_hours": "", "has_bbq": "0", "address": " 2494 Willow Grove Road Hill End 97 D2", "source": "", "state": "VIC", "polling_place_name": "Hill End Mechanics Institute Hall", "has_nothing": "0", "has_caek": "0", "gid": "1143", "extra_info": ""}}, {"geometry": {"type": "Point", "coordinates": [146.37152599999996, -37.978693]}, "type": "Feature", "properties": {"division": "Narracan District", "gx_id": "1140", "booth_info": "", "premises": "Erica", "opening_hours": "", "has_bbq": "0", "address": " 14 School Road Erica 81 G9", "source": "", "state": "VIC", "polling_place_name": "Erica Memorial Hall", "has_nothing": "0", "has_caek": "0", "gid": "1140", "extra_info": ""}}, {"geometry": {"type": "Point", "coordinates": [145.60823, -38.144515]}, "type": "Feature", "properties": {"division": "Narracan District", "gx_id": "1141", "booth_info": "", "premises": "Cora Lynn", "opening_hours": "", "has_bbq": "0", "address": " Bunyip River Road Cora Lynn 96 B4", "source": "", "state": "VIC", "polling_place_name": "Cora Lynn Recreation Reserve Hall", "has_nothing": "0", "has_caek": "0", "gid": "1141", "extra_info": ""}}, {"geometry": {"type": "Point", "coordinates": [145.85384, -38.13286]},