{"type": "FeatureCollection", "features": [{"geometry": {"type": "Point", "coordinates": [147.35399999999998, -42.8131]}, "type": "Feature", "properties": {"division": "", "gx_id": "216", "booth_info": "Standard", "premises": "Risdon Vale Primary School", "opening_hours": "", "has_bbq": "0", "address": "Heather Rd TAS 7016", "source": "", "state": "TAS", "polling_place_name": "Risdon Vale Primary School", "has_nothing": "0", "has_caek": "1", "gid": "216", "extra_info": "Plus egg & bacon rolls and coffee"}}, {"geometry": {"type": "Point", "coordinates": [147.09701500000003, -41.409693]}, "type": "Feature", "properties": {"division": "", "gx_id": "217", "booth_info": "Assisted Disabled", "premises": "Riverside High School", "opening_hours": "", "has_bbq": "0", "address": "354 West Tamar Highway TAS 7250", "source": "", "state": "TAS", "polling_place_name": "Riverside High School", "has_nothing": "0", "has_caek": "0", "gid": "217", "extra_info": ""}}, {"geometry": {"type": "Point", "coordinates": [145.837, -41.1398]}, "type": "Feature", "properties": {"division": "", "gx_id": "214", "booth_info": "Assisted Disabled", "premises": "Ridgley Primary School", "opening_hours": "", "has_bbq": "0", "address": "904 Ridgley Hwy TAS 7321", "source": "", "state": "TAS", "polling_place_name": "Ridgley Primary School", "has_nothing": "0", "has_caek": "0", "gid": "214", "extra_info": ""}}, {"geometry": {"type": "Point", "coordinates": [147.73568, -41.24241]}, "type": "Feature", "properties": {"division": "", "gx_id": "215", "booth_info": "Assisted Disabled", "premises": "Ringarooma Hall", "opening_hours": "", "has_bbq": "0", "address": "Charles St TAS 7263", "source": "", "state": "TAS", "polling_place_name": "Ringarooma Hall", "has_nothing": "0", "has_caek": "0", "gid": "215", "extra_info": ""}}, {"geometry": {"type": "Point", "coordinates": [145.999, -41.2015]}, "type": "Feature", "properties": {"division": "", "gx_id": "212", "booth_info": "Standard", "premises": "Riana Community Centre", "opening_hours": "", "has_bbq": "0", "address": "1221 Pine Rd TAS 7316", "source": "", "state": "TAS", "polling_place_name": "Riana Community Centre", "has_nothing": "0", "has_caek": "0", "gid": "212", "extra_info": ""}}, {"geometry": {"type": "Point", "coordinates": [147.43846000000002, -42.73504]}, "type": "Feature", "properties": {"division": "", "gx_id": "213", "booth_info": "Assisted Disabled", "premises": "Richmond Primary School", "opening_hours": "", "has_bbq": "0", "address": "Commercial Road TAS 7025", "source": "", "state": "TAS", "polling_place_name": "Richmond Primary School", "has_nothing": "0", "has_caek": "0", "gid": "213", "extra_info": ""}}, {"geometry": {"type": "Point", "coordinates": [147.177, -41.4162]}, "type": "Feature", "properties": {"division": "", "gx_id": "210", "booth_info": "Assisted Disabled", "premises": "Ravenswood Heights Primary School Gynasium ", "opening_hours": "", "has_bbq": "0", "address": "25 Prossers Forest Rd TAS 7250", "source": "", "state": "TAS", "polling_place_name": "Ravenswood Heights Primary School Gynasium ", "has_nothing": "0", "has_caek": "0", "gid": "210", "extra_info": ""}}, {"geometry": {"type": "Point", "coordinates": [143.916, -39.7532]}, "type": "Feature", "properties": {"division": "", "gx_id": "211", "booth_info": "Standard", "premises": "Reekara Community Complex", "opening_hours": "", "has_bbq": "0", "address": "2249 North Rd TAS 7256", "source": "", "state": "TAS", "polling_place_name": "Reekara Community Complex", "has_nothing": "0", "has_caek": "0", "gid": "211", "extra_info": ""}}, {"geometry": {"type": "Point", "coordinates": [146.026, -41.09349999999999]}, "type": "Feature", "properties": {"division": "", "gx_id": "264", "booth_info": "Standard", "premises": "Sulphur Creek Memorial Hall", "opening_hours": "", "has_bbq": "0", "address": "Preservation Dr TAS 7321", "source": "", "state": "TAS", "polling_place_name": "Sulphur Creek Memorial Hall", "has_nothing": "0", "has_caek": "0", "gid": "264", "extra_info": ""}}, {"geometry": {"type": "Point", "coordinates": [147.13, -41.4683]}, "type": "Feature", "properties": {"division": "", "gx_id": "265", "booth_info": "Assisted Disabled", "premises": "Summerdale Community Centre", "opening_hours": "", "has_bbq": "0", "address": "82-84 Stanley St TAS 7250", "source": "", "state": "TAS", "polling_place_name": "Summerdale Community Centre", "has_nothing": "0", "has_caek": "0", "gid": "265", "extra_info": ""}}, {"geometry": {"type": "Point", "coordinates": [147.125949, -41.377716]}, "type": "Feature", "properties": {"division": "", "gx_id": "218", "booth_info": "Assisted Disabled", "premises": "Brooks High School", "opening_hours": "", "has_bbq": "0", "address": "215 George Town Rd TAS 7248", "source": "", "state": "TAS", "polling_place_name": "Brooks High School", "has_nothing": "0", "has_caek": "0", "gid": "218", "extra_info": ""}}, {"geometry": {"type": "Point", "coordinates": [145.487, -40.905]}, "type": "Feature", "properties": {"division": "", "gx_id": "219", "booth_info": "Assisted Disabled", "premises": "Rocky Cape Public Hall", "opening_hours": "", "has_bbq": "0", "address": "19074 Bass Hwy TAS 7321", "source": "", "state": "TAS", "polling_place_name": "Rocky Cape Public Hall", "has_nothing": "0", "has_caek": "0", "gid": "219", "extra_info": ""}}, {"geometry": {"type": "Point", "coordinates": [147.4862704, -42.9136629]}, "type": "Feature", "properties": {"division": "", "gx_id": "133", "booth_info": "Assisted Disabled", "premises": "Lauderdale Community Hall", "opening_hours": "", "has_bbq": "0", "address": "528A South Arm Rd TAS 7021", "source": "", "state": "TAS", "polling_place_name": "Lauderdale Community Hall", "has_nothing": "0", "has_caek": "0", "gid": "133", "extra_info": ""}}, {"geometry": {"type": "Point", "coordinates": [146.415, -41.2365]}, "type": "Feature", "properties": {"division": "", "gx_id": "132", "booth_info": "Assisted Disabled", "premises": "Latrobe Primary School", "opening_hours": "", "has_bbq": "0", "address": "Lewis St TAS 7307", "source": "", "state": "TAS", "polling_place_name": "Latrobe Primary School", "has_nothing": "0", "has_caek": "0", "gid": "132", "extra_info": ""}}, {"geometry": {"type": "Point", "coordinates": [148.246, -40.2094]}, "type": "Feature", "properties": {"division": "", "gx_id": "131", "booth_info": "Assisted Disabled", "premises": "W.G. Holloway Park Building", "opening_hours": "", "has_bbq": "0", "address": "Barr St TAS 7255", "source": "", "state": "TAS", "polling_place_name": "W.G. Holloway Park Building", "has_nothing": "0", "has_caek": "0", "gid": "131", "extra_info": ""}}, {"geometry": {"type": "Point", "coordinates": [147.043, -42.8304]}, "type": "Feature", "properties": {"division": "", "gx_id": "130", "booth_info": "Assisted Disabled", "premises": "Lachlan Community Hall", "opening_hours": "", "has_bbq": "0", "address": "511 Lachlan Rd TAS 7140", "source": "", "state": "TAS", "polling_place_name": "Lachlan Community Hall", "has_nothing": "0", "has_caek": "0", "gid": "130", "extra_info": ""}}, {"geometry": {"type": "Point", "coordinates": [147.228, -41.1773]}, "type": "Feature", "properties": {"division": "", "gx_id": "137", "booth_info": "Standard", "premises": "Lebrina Memorial Hall", "opening_hours": "", "has_bbq": "0", "address": "905 Golconda Rd TAS 7254", "source": "", "state": "TAS", "polling_place_name": "Lebrina Memorial Hall", "has_nothing": "0", "has_caek": "0", "gid": "137", "extra_info": ""}}, {"geometry": {"type": "Point", "coordinates": [147.141, -41.4399]}, "type": "Feature", "properties": {"division": "", "gx_id": "136", "booth_info": "Assisted Disabled", "premises": "St John's Parish Centre", "opening_hours": "", "has_bbq": "0", "address": "157 St John St TAS 7250", "source": "", "state": "TAS", "polling_place_name": "St John's Parish Centre", "has_nothing": "0", "has_caek": "0", "gid": "136", "extra_info": ""}}, {"geometry": {"type": "Point", "coordinates": [147.137, -41.436600000000006]}, "type": "Feature", "properties": {"division": "", "gx_id": "135", "booth_info": "Standard", "premises": "Pilgrim Hall", "opening_hours": "", "has_bbq": "0", "address": "36 Paterson St TAS 7250", "source": "", "state": "TAS", "polling_place_name": "Pilgrim Hall", "has_nothing": "0", "has_caek": "0", "gid": "135", "extra_info": ""}}, {"geometry": {"type": "Point", "coordinates": [147.143, -41.4464]}, "type": "Feature", "properties": {"division": "", "gx_id": "134", "booth_info": "Assisted Disabled", "premises": "Launceston General Hospital", "opening_hours": "", "has_bbq": "0", "address": " Meeting Rooom Level 3 Charles St TAS 7250", "source": "", "state": "TAS", "polling_place_name": "Launceston General Hospital", "has_nothing": "0", "has_caek": "0", "gid": "134", "extra_info": ""}}, {"geometry": {"type": "Point", "coordinates": [147.268, -42.8297]}, "type": "Feature", "properties": {"division": "", "gx_id": "95", "booth_info": "Assisted Disabled", "premises": "Glenorchy Primary School", "opening_hours": "", "has_bbq": "0", "address": "Cnr Main Rd & Kensington St TAS 7010", "source": "", "state": "TAS", "polling_place_name": "Glenorchy Primary School", "has_nothing": "0", "has_caek": "0", "gid": "95", "extra_info": ""}}, {"geometry": {"type": "Point", "coordinates": [147.28399999999996, -42.86240000000001]}, "type": "Feature", "properties": {"division": "", "gx_id": "139", "booth_info": "Standard", "premises": "St Andrew's Hall", "opening_hours": "", "has_bbq": "0", "address": "Lenah Valley Rd TAS 7008", "source": "", "state": "TAS", "polling_place_name": "St Andrew's Hall", "has_nothing": "0", "has_caek": "0", "gid": "139", "extra_info": ""}}, {"geometry": {"type": "Point", "coordinates": [147.047, -41.3632]}, "type": "Feature", "properties": {"division": "", "gx_id": "138", "booth_info": "Assisted Disabled", "premises": "Legana Memorial Hall", "opening_hours": "", "has_bbq": "0", "address": "43 Fulton St TAS 7277", "source": "", "state": "TAS", "polling_place_name": "Legana Memorial Hall", "has_nothing": "0", "has_caek": "0", "gid": "138", "extra_info": ""}}, {"geometry": {"type": "Point", "coordinates": [147.727, -43.0273]}, "type": "Feature", "properties": {"division": "", "gx_id": "225", "booth_info": "Assisted Disabled", "premises": "Saltwater River Public Hall", "opening_hours": "", "has_bbq": "0", "address": "600 Saltwater River Rd TAS 7186", "source": "", "state": "TAS", "polling_place_name": "Saltwater River Public Hall", "has_nothing": "0", "has_caek": "0", "gid": "225", "extra_info": ""}}, {"geometry": {"type": "Point", "coordinates": [147.395, -41.0026]}, "type": "Feature", "properties": {"division": "", "gx_id": "24", "booth_info": "Assisted Disabled", "premises": "Bridport Hall", "opening_hours": "", "has_bbq": "0", "address": "Main St TAS 7262", "source": "", "state": "TAS", "polling_place_name": "Bridport Hall", "has_nothing": "0", "has_caek": "0", "gid": "24", "extra_info": ""}}, {"geometry": {"type": "Point", "coordinates": [147.25799999999998, -42.6991]}, "type": "Feature", "properties": {"division": "", "gx_id": "25", "booth_info": "Assisted Disabled", "premises": "Brighton Primary School", "opening_hours": "", "has_bbq": "0", "address": "17 Downie St TAS 7030", "source": "", "state": "TAS", "polling_place_name": "Brighton Primary School", "has_nothing": "0", "has_caek": "0", "gid": "25", "extra_info": ""}}, {"geometry": {"type": "Point", "coordinates": [147.312, -42.8949]}, "type": "Feature", "properties": {"division": "", "gx_id": "250", "booth_info": "Assisted Disabled", "premises": "St Francis Xavier's Church Hall", "opening_hours": "", "has_bbq": "0", "address": "34 Anglesea St TAS 7004", "source": "", "state": "TAS", "polling_place_name": "St Francis Xavier's Church Hall", "has_nothing": "0", "has_caek": "0", "gid": "250", "extra_info": ""}}, {"geometry": {"type": "Point", "coordinates": [147.492498, -42.031409]}, "type": "Feature", "properties": {"division": "", "gx_id": "224", "booth_info": "Standard", "premises": "Ross Town Hall", "opening_hours": "", "has_bbq": "0", "address": "12 Bridge St TAS 7209", "source": "", "state": "TAS", "polling_place_name": "Ross Town Hall", "has_nothing": "0", "has_caek": "0", "gid": "224", "extra_info": ""}}, {"geometry": {"type": "Point", "coordinates": [147.006, -42.3819]}, "type": "Feature", "properties": {"division": "", "gx_id": "20", "booth_info": "Assisted Disabled", "premises": "Bothwell Council Chambers", "opening_hours": "", "has_bbq": "0", "address": "Alexander St TAS 7030", "source": "", "state": "TAS", "polling_place_name": "Bothwell Council Chambers", "has_nothing": "0", "has_caek": "0", "gid": "20", "extra_info": ""}}, {"geometry": {"type": "Point", "coordinates": [146.943, -41.6512]}, "type": "Feature", "properties": {"division": "", "gx_id": "21", "booth_info": "Assisted Disabled", "premises": "Bracknell War Memorial Hall", "opening_hours": "", "has_bbq": "0", "address": "Louisa St TAS 7302", "source": "", "state": "TAS", "polling_place_name": "Bracknell War Memorial Hall", "has_nothing": "0", "has_caek": "1", "gid": "21", "extra_info": ""}}, {"geometry": {"type": "Point", "coordinates": [147.73647999999997, -41.165606]}, "type": "Feature", "properties": {"division": "", "gx_id": "22", "booth_info": "Standard", "premises": "Branxholm Community Hall", "opening_hours": "", "has_bbq": "0", "address": "Stoke St TAS 7261", "source": "", "state": "TAS", "polling_place_name": "Branxholm Community Hall", "has_nothing": "0", "has_caek": "0", "gid": "22", "extra_info": ""}}, {"geometry": {"type": "Point", "coordinates": [147.24447999999998, -42.73831]}, "type": "Feature", "properties": {"division": "", "gx_id": "23", "booth_info": "Assisted Disabled", "premises": "Brighton Civic Centre", "opening_hours": "", "has_bbq": "1", "address": "25 Green Point Rd TAS 7030", "source": "", "state": "TAS", "polling_place_name": "Brighton Civic Centre", "has_nothing": "0", "has_caek": "0", "gid": "23", "extra_info": ""}}, {"geometry": {"type": "Point", "coordinates": [147.266, -42.819900000000004]}, "type": "Feature", "properties": {"division": "", "gx_id": "223", "booth_info": "Standard", "premises": "Montrose Bay Yacht Club", "opening_hours": "", "has_bbq": "0", "address": " Foreshore Rd TAS 7010", "source": "", "state": "TAS", "polling_place_name": "Montrose Bay Yacht Club", "has_nothing": "0", "has_caek": "0", "gid": "223", "extra_info": ""}}, {"geometry": {"type": "Point", "coordinates": [147.718, -42.60719999999999]}, "type": "Feature", "properties": {"division": "", "gx_id": "28", "booth_info": "Assisted Disabled", "premises": "Buckland Memorial Hall", "opening_hours": "", "has_bbq": "0", "address": "22 Kent St TAS 7190", "source": "", "state": "TAS", "polling_place_name": "Buckland Memorial Hall", "has_nothing": "0", "has_caek": "0", "gid": "28", "extra_info": ""}}, {"geometry": {"type": "Point", "coordinates": [145.906, -41.0532]}, "type": "Feature", "properties": {"division": "", "gx_id": "29", "booth_info": "Assisted Disabled", "premises": "Burnie City Council Offices", "opening_hours": "", "has_bbq": "0", "address": "80 Wilson St TAS 7320", "source": "", "state": "TAS", "polling_place_name": "Burnie City Council Offices", "has_nothing": "0", "has_caek": "0", "gid": "29", "extra_info": ""}}, {"geometry": {"type": "Point", "coordinates": [145.54094, -41.77853]}, "type": "Feature", "properties": {"division": "", "gx_id": "222", "booth_info": "Assisted Disabled", "premises": "Rosebery Neighbourhood Centre", "opening_hours": "", "has_bbq": "0", "address": " 8 Agnes St TAS 7470", "source": "", "state": "TAS", "polling_place_name": "Rosebery Neighbourhood Centre", "has_nothing": "0", "has_caek": "0", "gid": "222", "extra_info": ""}}, {"geometry": {"type": "Point", "coordinates": [147.317, -42.8878]}, "type": "Feature", "properties": {"division": "", "gx_id": "289", "booth_info": "Standard", "premises": "Goulburn Street Primary School", "opening_hours": "", "has_bbq": "0", "address": "Forest Rd TAS 7000", "source": "", "state": "TAS", "polling_place_name": "Goulburn Street Primary School", "has_nothing": "0", "has_caek": "0", "gid": "289", "extra_info": ""}}, {"geometry": {"type": "Point", "coordinates": [147.3100773, -42.8778039]}, "type": "Feature", "properties": {"division": "", "gx_id": "288", "booth_info": "Assisted Disabled", "premises": "Lawrenny Court", "opening_hours": "", "has_bbq": "0", "address": "131 Hill St TAS 7000", "source": "", "state": "TAS", "polling_place_name": "Lawrenny Court", "has_nothing": "0", "has_caek": "0", "gid": "288", "extra_info": ""}}, {"geometry": {"type": "Point", "coordinates": [145.8995841, -41.0766337]}, "type": "Feature", "properties": {"division": "", "gx_id": "221", "booth_info": "Assisted Disabled", "premises": "Romaine Park Primary School", "opening_hours": "", "has_bbq": "0", "address": "Cnr Roslyn Avenue and Mount Street TAS 7320", "source": "", "state": "TAS", "polling_place_name": "Romaine Park Primary School", "has_nothing": "0", "has_caek": "0", "gid": "221", "extra_info": ""}}, {"geometry": {"type": "Point", "coordinates": [146.17091, -41.16201000000001]}, "type": "Feature", "properties": {"division": "", "gx_id": "281", "booth_info": "Assisted Disabled", "premises": "Ulverstone High School", "opening_hours": "", "has_bbq": "0", "address": "38 Leven St TAS 7315", "source": "", "state": "TAS", "polling_place_name": "Ulverstone High School", "has_nothing": "0", "has_caek": "0", "gid": "281", "extra_info": ""}}, {"geometry": {"type": "Point", "coordinates": [146.192, -41.15460000000001]}, "type": "Feature", "properties": {"division": "", "gx_id": "280", "booth_info": "Assisted Disabled", "premises": "East Ulverstone Primary School", "opening_hours": "", "has_bbq": "0", "address": "18 Crawford St TAS 7315", "source": "", "state": "TAS", "polling_place_name": "East Ulverstone Primary School", "has_nothing": "0", "has_caek": "0", "gid": "280", "extra_info": ""}}, {"geometry": {"type": "Point", "coordinates": [147.3825601, -42.8611504]}, "type": "Feature", "properties": {"division": "", "gx_id": "283", "booth_info": "Assisted Disabled", "premises": "Warrane Primary School", "opening_hours": "", "has_bbq": "0", "address": "213 Cambridge Rd TAS 7018", "source": "", "state": "TAS", "polling_place_name": "Warrane Primary School", "has_nothing": "0", "has_caek": "0", "gid": "283", "extra_info": ""}}, {"geometry": {"type": "Point", "coordinates": [147.43199999999996, -42.8959]}, "type": "Feature", "properties": {"division": "", "gx_id": "220", "booth_info": "Assisted Disabled", "premises": "Rokeby Community Centre", "opening_hours": "", "has_bbq": "0", "address": "Hart Pl TAS 7019", "source": "", "state": "TAS", "polling_place_name": "Rokeby Community Centre", "has_nothing": "1", "has_caek": "0", "gid": "220", "extra_info": ""}}, {"geometry": {"type": "Point", "coordinates": [147.19, -41.4321]}, "type": "Feature", "properties": {"division": "", "gx_id": "285", "booth_info": "Standard", "premises": "Waverley School Primary School", "opening_hours": "", "has_bbq": "0", "address": "6 Naroo St TAS 7250", "source": "", "state": "TAS", "polling_place_name": "Waverley School Primary School", "has_nothing": "0", "has_caek": "0", "gid": "285", "extra_info": ""}}, {"geometry": {"type": "Point", "coordinates": [147.38399999999996, -42.8559]}, "type": "Feature", "properties": {"division": "", "gx_id": "284", "booth_info": "Assisted Disabled", "premises": "Warrane Mornington Neighbourhood Centre", "opening_hours": "", "has_bbq": "0", "address": "150A Bligh St TAS 7018", "source": "", "state": "TAS", "polling_place_name": "Warrane Mornington Neighbourhood Centre", "has_nothing": "0", "has_caek": "0", "gid": "284", "extra_info": ""}}, {"geometry": {"type": "Point", "coordinates": [147.30900000000003, -42.8819]}, "type": "Feature", "properties": {"division": "", "gx_id": "287", "booth_info": "Assisted Disabled", "premises": "Lansdowne Crescent Primary School", "opening_hours": "", "has_bbq": "0", "address": "Gourlay St TAS 7000", "source": "", "state": "TAS", "polling_place_name": "Lansdowne Crescent Primary School", "has_nothing": "0", "has_caek": "0", "gid": "287", "extra_info": ""}}, {"geometry": {"type": "Point", "coordinates": [146.457, -41.1885]}, "type": "Feature", "properties": {"division": "", "gx_id": "286", "booth_info": "Assisted Disabled", "premises": "Wesley Vale Primary School", "opening_hours": "", "has_bbq": "0", "address": "West Wind Dr (Wesley Vale Road) TAS 7307", "source": "", "state": "TAS", "polling_place_name": "Wesley Vale Primary School", "has_nothing": "0", "has_caek": "0", "gid": "286", "extra_info": ""}}, {"geometry": {"type": "Point", "coordinates": [146.8238, -41.1076]}, "type": "Feature", "properties": {"division": "", "gx_id": "87", "booth_info": "Assisted Disabled", "premises": "George Town Memorial Hall", "opening_hours": "", "has_bbq": "0", "address": "29-67 Macquarie St TAS 7253", "source": "", "state": "TAS", "polling_place_name": "George Town Memorial Hall", "has_nothing": "0", "has_caek": "0", "gid": "87", "extra_info": ""}}, {"geometry": {"type": "Point", "coordinates": [146.372, -41.1779]}, "type": "Feature", "properties": {"division": "", "gx_id": "66", "booth_info": "Assisted Disabled", "premises": "East Devonport Primary School", "opening_hours": "", "has_bbq": "0", "address": "19 Thomas St TAS 7310", "source": "", "state": "TAS", "polling_place_name": "East Devonport Primary School", "has_nothing": "0", "has_caek": "0", "gid": "66", "extra_info": ""}}, {"geometry": {"type": "Point", "coordinates": [147.495, -42.9402]}, "type": "Feature", "properties": {"division": "", "gx_id": "227", "booth_info": "Standard", "premises": "Sandford Hall", "opening_hours": "", "has_bbq": "0", "address": "973 South Arm Rd TAS 7020", "source": "", "state": "TAS", "polling_place_name": "Sandford Hall", "has_nothing": "0", "has_caek": "0", "gid": "227", "extra_info": ""}}, {"geometry": {"type": "Point", "coordinates": [145.14499999999998, -40.9133]}, "type": "Feature", "properties": {"division": "", "gx_id": "120", "booth_info": "Standard", "premises": "Irishtown Lodge Arthur Temple", "opening_hours": "", "has_bbq": "0", "address": "604 Irishtown Rd TAS 7330", "source": "", "state": "TAS", "polling_place_name": "Irishtown Lodge Arthur Temple", "has_nothing": "0", "has_caek": "0", "gid": "120", "extra_info": ""}}, {"geometry": {"type": "Point", "coordinates": [146.9283, -42.9982]}, "type": "Feature", "properties": {"division": "", "gx_id": "121", "booth_info": "Assisted Disabled", "premises": "Judbury Hall", "opening_hours": "", "has_bbq": "0", "address": "1273 Glen Huon Rd TAS 7109", "source": "", "state": "TAS", "polling_place_name": "Judbury Hall", "has_nothing": "0", "has_caek": "0", "gid": "121", "extra_info": ""}}, {"geometry": {"type": "Point", "coordinates": [147.148, -41.25390000000001]}, "type": "Feature", "properties": {"division": "", "gx_id": "122", "booth_info": "Assisted Disabled", "premises": "Karoola Hall", "opening_hours": "", "has_bbq": "0", "address": "1126 Pipers River Rd TAS 7267", "source": "", "state": "TAS", "polling_place_name": "Karoola Hall", "has_nothing": "0", "has_caek": "0", "gid": "122", "extra_info": ""}}, {"geometry": {"type": "Point", "coordinates": [146.794, -41.1037]}, "type": "Feature", "properties": {"division": "", "gx_id": "123", "booth_info": "Standard", "premises": "Kelso Community Centre", "opening_hours": "", "has_bbq": "0", "address": "Foreshore Rd TAS 7270", "source": "", "state": "TAS", "polling_place_name": "Kelso Community Centre", "has_nothing": "0", "has_caek": "0", "gid": "123", "extra_info": ""}}, {"geometry": {"type": "Point", "coordinates": [147.20000000000002, -42.5313]}, "type": "Feature", "properties": {"division": "", "gx_id": "124", "booth_info": "Assisted Disabled", "premises": "Kempton Council Chambers", "opening_hours": "", "has_bbq": "0", "address": "Main St TAS 7030", "source": "", "state": "TAS", "polling_place_name": "Kempton Council Chambers", "has_nothing": "0", "has_caek": "0", "gid": "124", "extra_info": ""}}, {"geometry": {"type": "Point", "coordinates": [147.247, -43.125699999999995]}, "type": "Feature", "properties": {"division": "", "gx_id": "125", "booth_info": "Assisted Disabled", "premises": "Kettering Community Centre", "opening_hours": "", "has_bbq": "0", "address": "2963 Channel Hwy TAS 7050", "source": "", "state": "TAS", "polling_place_name": "Kettering Community Centre", "has_nothing": "0", "has_caek": "0", "gid": "125", "extra_info": ""}}, {"geometry": {"type": "Point", "coordinates": [147.16, -41.4677]}, "type": "Feature", "properties": {"division": "", "gx_id": "126", "booth_info": "Assisted Disabled", "premises": "Y.M.C.A. Centre", "opening_hours": "", "has_bbq": "0", "address": "8A Blaydon St TAS 7249", "source": "", "state": "TAS", "polling_place_name": "Y.M.C.A. Centre", "has_nothing": "0", "has_caek": "0", "gid": "126", "extra_info": ""}}, {"geometry": {"type": "Point", "coordinates": [147.311406, -42.975321]}, "type": "Feature", "properties": {"division": "", "gx_id": "127", "booth_info": "Disabled", "premises": "Kingborough Council", "opening_hours": "", "has_bbq": "0", "address": "15 Channel Hwy TAS 7050", "source": "", "state": "TAS", "polling_place_name": "Kingborough Council", "has_nothing": "0", "has_caek": "0", "gid": "127", "extra_info": ""}}, {"geometry": {"type": "Point", "coordinates": [147.30900000000003, -42.9896]}, "type": "Feature", "properties": {"division": "", "gx_id": "128", "booth_info": "Assisted Disabled", "premises": "Southern Christian College", "opening_hours": "", "has_bbq": "1", "address": "150 Redwood Rd TAS 7050", "source": "", "state": "TAS", "polling_place_name": "Southern Christian College", "has_nothing": "0", "has_caek": "0", "gid": "128", "extra_info": ""}}, {"geometry": {"type": "Point", "coordinates": [147.3235074, -42.9815337]}, "type": "Feature", "properties": {"division": "", "gx_id": "129", "booth_info": "Assisted Disabled", "premises": "Kingston Beach Hall", "opening_hours": "", "has_bbq": "0", "address": "Beach Rd TAS 7050", "source": "", "state": "TAS", "polling_place_name": "Kingston Beach Hall", "has_nothing": "0", "has_caek": "0", "gid": "129", "extra_info": ""}}, {"geometry": {"type": "Point", "coordinates": [147.367, -41.3107]}, "type": "Feature", "properties": {"division": "", "gx_id": "269", "booth_info": "Assisted Disabled", "premises": "Myrtle Park Hall", "opening_hours": "", "has_bbq": "0", "address": "38250 Tasman Hwy TAS 7259", "source": "", "state": "TAS", "polling_place_name": "Myrtle Park Hall", "has_nothing": "0", "has_caek": "0", "gid": "269", "extra_info": ""}}, {"geometry": {"type": "Point", "coordinates": [147.868, -43.0371]}, "type": "Feature", "properties": {"division": "", "gx_id": "268", "booth_info": "Assisted Disabled", "premises": "Tasman Peninsula Community Centre", "opening_hours": "", "has_bbq": "0", "address": "Gourlay Rd TAS 7180", "source": "", "state": "TAS", "polling_place_name": "Tasman Peninsula Community Centre", "has_nothing": "0", "has_caek": "0", "gid": "268", "extra_info": ""}}, {"geometry": {"type": "Point", "coordinates": [145.09200000000004, -40.970499999999994]}, "type": "Feature", "properties": {"division": "", "gx_id": "69", "booth_info": "Assisted Disabled", "premises": "Edith Creek Primary School", "opening_hours": "", "has_bbq": "0", "address": "1282 Trowutta Rd TAS 7330", "source": "", "state": "TAS", "polling_place_name": "Edith Creek Primary School", "has_nothing": "0", "has_caek": "0", "gid": "69", "extra_info": ""}}, {"geometry": {"type": "Point", "coordinates": [146.871, -41.338300000000004]}, "type": "Feature", "properties": {"division": "", "gx_id": "91", "booth_info": "Assisted Disabled", "premises": "Glengarry Fire Station", "opening_hours": "", "has_bbq": "0", "address": "Frankford Rd TAS 7275", "source": "", "state": "TAS", "polling_place_name": "Glengarry Fire Station", "has_nothing": "0", "has_caek": "0", "gid": "91", "extra_info": ""}}, {"geometry": {"type": "Point", "coordinates": [146.345, -41.1864]}, "type": "Feature", "properties": {"division": "", "gx_id": "59", "booth_info": "Assisted Disabled", "premises": "TasTafe", "opening_hours": "", "has_bbq": "0", "address": "20-36 Valley Rd TAS 7310", "source": "", "state": "TAS", "polling_place_name": "TasTafe", "has_nothing": "0", "has_caek": "0", "gid": "59", "extra_info": ""}}, {"geometry": {"type": "Point", "coordinates": [146.349, -41.1893]}, "type": "Feature", "properties": {"division": "", "gx_id": "58", "booth_info": "Assisted Disabled", "premises": "Reece High School", "opening_hours": "", "has_bbq": "0", "address": "41-43 Middle Rd TAS 7310", "source": "", "state": "TAS", "polling_place_name": "Reece High School", "has_nothing": "0", "has_caek": "0", "gid": "58", "extra_info": ""}}, {"geometry": {"type": "Point", "coordinates": [146.358, -41.1789]}, "type": "Feature", "properties": {"division": "", "gx_id": "55", "booth_info": "Assisted Disabled", "premises": "St Johns Parish Hall", "opening_hours": "", "has_bbq": "0", "address": "Fenton St TAS 7310", "source": "", "state": "TAS", "polling_place_name": "St Johns Parish Hall", "has_nothing": "0", "has_caek": "0", "gid": "55", "extra_info": ""}}, {"geometry": {"type": "Point", "coordinates": [146.344, -41.1737]}, "type": "Feature", "properties": {"division": "", "gx_id": "54", "booth_info": "Assisted Disabled", "premises": "Addison Street Scout Hall", "opening_hours": "", "has_bbq": "0", "address": "11 Addison St TAS 7310", "source": "", "state": "TAS", "polling_place_name": "Addison Street Scout Hall", "has_nothing": "0", "has_caek": "0", "gid": "54", "extra_info": ""}}, {"geometry": {"type": "Point", "coordinates": [146.337, -41.1728]}, "type": "Feature", "properties": {"division": "", "gx_id": "57", "booth_info": "Assisted Disabled", "premises": "Nixon Street Primary School", "opening_hours": "", "has_bbq": "0", "address": "Nixon St TAS 7310", "source": "", "state": "TAS", "polling_place_name": "Nixon Street Primary School", "has_nothing": "0", "has_caek": "0", "gid": "57", "extra_info": ""}}, {"geometry": {"type": "Point", "coordinates": [146.354, -41.1667]}, "type": "Feature", "properties": {"division": "", "gx_id": "56", "booth_info": "Assisted Disabled", "premises": "Mersey Bluff Church of Christ", "opening_hours": "", "has_bbq": "0", "address": "232 William St TAS 7310", "source": "", "state": "TAS", "polling_place_name": "Mersey Bluff Church of Christ", "has_nothing": "0", "has_caek": "0", "gid": "56", "extra_info": ""}}, {"geometry": {"type": "Point", "coordinates": [146.66111, -41.52917]}, "type": "Feature", "properties": {"division": "", "gx_id": "51", "booth_info": "Assisted Disabled", "premises": "Deloraine High School Hall", "opening_hours": "", "has_bbq": "0", "address": "East Barrack St TAS 7304", "source": "", "state": "TAS", "polling_place_name": "Deloraine High School Hall", "has_nothing": "0", "has_caek": "0", "gid": "51", "extra_info": ""}}, {"geometry": {"type": "Point", "coordinates": [145.614, -41.73759999999999]}, "type": "Feature", "properties": {"division": "", "gx_id": "276", "booth_info": "Assisted Disabled", "premises": "Tullah Fire Station", "opening_hours": "", "has_bbq": "0", "address": "Farrell St TAS 7321", "source": "", "state": "TAS", "polling_place_name": "Tullah Fire Station", "has_nothing": "0", "has_caek": "0", "gid": "276", "extra_info": ""}}, {"geometry": {"type": "Point", "coordinates": [147.296, -42.838]}, "type": "Feature", "properties": {"division": "", "gx_id": "53", "booth_info": "Assisted Disabled", "premises": "Moonah Primary School", "opening_hours": "", "has_bbq": "1", "address": "42 Derwent Park Rd TAS 7009", "source": "", "state": "TAS", "polling_place_name": "Moonah Primary School", "has_nothing": "0", "has_caek": "1", "gid": "53", "extra_info": ""}}, {"geometry": {"type": "Point", "coordinates": [147.80236, -41.14933]}, "type": "Feature", "properties": {"division": "", "gx_id": "52", "booth_info": "Standard", "premises": "Derby Town Hall", "opening_hours": "", "has_bbq": "0", "address": "Cnr Main & Krushka St TAS 7264", "source": "", "state": "TAS", "polling_place_name": "Derby Town Hall", "has_nothing": "0", "has_caek": "0", "gid": "52", "extra_info": ""}}, {"geometry": {"type": "Point", "coordinates": [147.013, -43.3105]}, "type": "Feature", "properties": {"division": "", "gx_id": "63", "booth_info": "Assisted Disabled", "premises": "Dover District High School", "opening_hours": "", "has_bbq": "0", "address": "6940 Huon Hwy TAS 7117", "source": "", "state": "TAS", "polling_place_name": "Dover District High School", "has_nothing": "0", "has_caek": "0", "gid": "63", "extra_info": ""}}, {"geometry": {"type": "Point", "coordinates": [147.824, -41.0979]}, "type": "Feature", "properties": {"division": "", "gx_id": "298", "booth_info": "Standard", "premises": "Winnaleah Memorial Hall", "opening_hours": "", "has_bbq": "0", "address": "20 Main St TAS 7265", "source": "", "state": "TAS", "polling_place_name": "Winnaleah Memorial Hall", "has_nothing": "0", "has_caek": "0", "gid": "298", "extra_info": ""}}, {"geometry": {"type": "Point", "coordinates": [145.93609, -41.06904]}, "type": "Feature", "properties": {"division": "", "gx_id": "299", "booth_info": "Assisted Disabled", "premises": "Wivenhoe Campus Leighland Christian School", "opening_hours": "", "has_bbq": "0", "address": "Stowport Rd TAS 7320", "source": "", "state": "TAS", "polling_place_name": "Wivenhoe Campus Leighland Christian School", "has_nothing": "0", "has_caek": "0", "gid": "299", "extra_info": ""}}, {"geometry": {"type": "Point", "coordinates": [146.93099999999998, -41.5825]}, "type": "Feature", "properties": {"division": "", "gx_id": "296", "booth_info": "Standard", "premises": "Whitemore Historical Group Rooms (Old School)", "opening_hours": "", "has_bbq": "0", "address": "769 Whitemore Rd TAS 7303", "source": "", "state": "TAS", "polling_place_name": "Whitemore Historical Group Rooms (Old School)", "has_nothing": "0", "has_caek": "0", "gid": "296", "extra_info": ""}}, {"geometry": {"type": "Point", "coordinates": [146.1732064, -41.3855154]}, "type": "Feature", "properties": {"division": "", "gx_id": "297", "booth_info": "Assisted Disabled", "premises": "Wilmot Primary School", "opening_hours": "", "has_bbq": "0", "address": "Main Rd (Wilmot Road) TAS 7310", "source": "", "state": "TAS", "polling_place_name": "Wilmot Primary School", "has_nothing": "0", "has_caek": "0", "gid": "297", "extra_info": ""}}, {"geometry": {"type": "Point", "coordinates": [147.154, -41.0153]}, "type": "Feature", "properties": {"division": "", "gx_id": "294", "booth_info": "Standard", "premises": "Weymouth Hall", "opening_hours": "", "has_bbq": "0", "address": "18 Major St TAS 7252", "source": "", "state": "TAS", "polling_place_name": "Weymouth Hall", "has_nothing": "0", "has_caek": "0", "gid": "294", "extra_info": ""}}, {"geometry": {"type": "Point", "coordinates": [148.019, -40.1214]}, "type": "Feature", "properties": {"division": "", "gx_id": "295", "booth_info": "Assisted Disabled", "premises": "Whitemark Lions Club", "opening_hours": "", "has_bbq": "0", "address": "James St TAS 7255", "source": "", "state": "TAS", "polling_place_name": "Whitemark Lions Club", "has_nothing": "0", "has_caek": "0", "gid": "295", "extra_info": ""}}, {"geometry": {"type": "Point", "coordinates": [146.83000000000004, -41.52799999999999]}, "type": "Feature", "properties": {"division": "", "gx_id": "292", "booth_info": "Assisted Disabled", "premises": "Westbury Town Hall", "opening_hours": "", "has_bbq": "0", "address": "26 Lyall St TAS 7303", "source": "", "state": "TAS", "polling_place_name": "Westbury Town Hall", "has_nothing": "0", "has_caek": "0", "gid": "292", "extra_info": ""}}, {"geometry": {"type": "Point", "coordinates": [146.787, -42.6775]}, "type": "Feature", "properties": {"division": "", "gx_id": "293", "booth_info": "Assisted Disabled", "premises": "Westerway Primary School", "opening_hours": "", "has_bbq": "0", "address": "1619 Gordon River Rd TAS 7140", "source": "", "state": "TAS", "polling_place_name": "Westerway Primary School", "has_nothing": "0", "has_caek": "0", "gid": "293", "extra_info": ""}}, {"geometry": {"type": "Point", "coordinates": [147.129, -41.4492]}, "type": "Feature", "properties": {"division": "", "gx_id": "290", "booth_info": "Assisted Disabled", "premises": "West Launceston Primary School", "opening_hours": "", "has_bbq": "0", "address": "24 Basin Rd TAS 7250", "source": "", "state": "TAS", "polling_place_name": "West Launceston Primary School", "has_nothing": "0", "has_caek": "0", "gid": "290", "extra_info": ""}}, {"geometry": {"type": "Point", "coordinates": [146.15999999999997, -41.1482]}, "type": "Feature", "properties": {"division": "", "gx_id": "291", "booth_info": "Assisted Disabled", "premises": "West Ulverstone Primary School", "opening_hours": "", "has_bbq": "0", "address": "34 Maud St TAS 7315", "source": "", "state": "TAS", "polling_place_name": "West Ulverstone Primary School", "has_nothing": "0", "has_caek": "0", "gid": "291", "extra_info": ""}}, {"geometry": {"type": "Point", "coordinates": [146.556, -41.1657]}, "type": "Feature", "properties": {"division": "", "gx_id": "201", "booth_info": "Assisted Disabled", "premises": "Port Sorell Memorial Hall", "opening_hours": "", "has_bbq": "0", "address": "Cnr Meredith & Darling St TAS 7307", "source": "", "state": "TAS", "polling_place_name": "Port Sorell Memorial Hall", "has_nothing": "0", "has_caek": "0", "gid": "201", "extra_info": ""}}, {"geometry": {"type": "Point", "coordinates": [147.845, -43.142]}, "type": "Feature", "properties": {"division": "", "gx_id": "199", "booth_info": "Assisted Disabled", "premises": "Port Arthur Sports Ground", "opening_hours": "", "has_bbq": "0", "address": "2745 Nubeena Rd TAS 7182", "source": "", "state": "TAS", "polling_place_name": "Port Arthur Sports Ground", "has_nothing": "0", "has_caek": "0", "gid": "199", "extra_info": ""}}, {"geometry": {"type": "Point", "coordinates": [147.266, -42.6836]}, "type": "Feature", "properties": {"division": "", "gx_id": "198", "booth_info": "Assisted Disabled", "premises": "Pontville Old Council Chambers", "opening_hours": "", "has_bbq": "0", "address": "262 Midland Hwy TAS 7030", "source": "", "state": "TAS", "polling_place_name": "Pontville Old Council Chambers", "has_nothing": "0", "has_caek": "0", "gid": "198", "extra_info": ""}}, {"geometry": {"type": "Point", "coordinates": [146.96379939999997, -43.1553225]}, "type": "Feature", "properties": {"division": "", "gx_id": "200", "booth_info": "Assisted Disabled", "premises": "Port Huon Sports & Aquatic Centre", "opening_hours": "", "has_bbq": "0", "address": "Huon Hwy TAS 7116", "source": "", "state": "TAS", "polling_place_name": "Port Huon Sports & Aquatic Centre", "has_nothing": "0", "has_caek": "0", "gid": "200", "extra_info": ""}}, {"geometry": {"type": "Point", "coordinates": [146.071, -41.112]}, "type": "Feature", "properties": {"division": "", "gx_id": "195", "booth_info": "Assisted Disabled", "premises": "Penguin Uniting Church Hall", "opening_hours": "", "has_bbq": "0", "address": "50 Main Rd TAS 7316", "source": "", "state": "TAS", "polling_place_name": "Penguin Uniting Church Hall", "has_nothing": "0", "has_caek": "0", "gid": "195", "extra_info": ""}}, {"geometry": {"type": "Point", "coordinates": [147.407, -42.3503]}, "type": "Feature", "properties": {"division": "", "gx_id": "194", "booth_info": "Assisted Disabled", "premises": "Parattah Jubilee Hall", "opening_hours": "", "has_bbq": "0", "address": "657 Tunnack Rd TAS 7120", "source": "", "state": "TAS", "polling_place_name": "Parattah Jubilee Hall", "has_nothing": "0", "has_caek": "0", "gid": "194", "extra_info": ""}}, {"geometry": {"type": "Point", "coordinates": [147.091, -41.1006]}, "type": "Feature", "properties": {"division": "", "gx_id": "197", "booth_info": "Standard", "premises": "Pipers River Fire Station", "opening_hours": "", "has_bbq": "0", "address": "76 School Rd TAS 7252", "source": "", "state": "TAS", "polling_place_name": "Pipers River Fire Station", "has_nothing": "0", "has_caek": "0", "gid": "197", "extra_info": ""}}, {"geometry": {"type": "Point", "coordinates": [147.173, -41.5725]}, "type": "Feature", "properties": {"division": "", "gx_id": "196", "booth_info": "Assisted Disabled", "premises": "Perth Community Centre", "opening_hours": "", "has_bbq": "0", "address": "173 Fairtlough St TAS 7300", "source": "", "state": "TAS", "polling_place_name": "Perth Community Centre", "has_nothing": "0", "has_caek": "0", "gid": "196", "extra_info": ""}}, {"geometry": {"type": "Point", "coordinates": [147.26576, -42.77427]}, "type": "Feature", "properties": {"division": "", "gx_id": "191", "booth_info": "Standard", "premises": "Old Beach Fire Station", "opening_hours": "", "has_bbq": "0", "address": "Jetty Rd TAS 7017", "source": "", "state": "TAS", "polling_place_name": "Old Beach Fire Station", "has_nothing": "0", "has_caek": "0", "gid": "191", "extra_info": ""}}, {"geometry": {"type": "Point", "coordinates": [147.372, -42.3]}, "type": "Feature", "properties": {"division": "", "gx_id": "190", "booth_info": "Assisted Disabled", "premises": "Oatlands Council Chambers, Court Room", "opening_hours": "", "has_bbq": "0", "address": "71 High St TAS 7120", "source": "", "state": "TAS", "polling_place_name": "Oatlands Council Chambers, Court Room", "has_nothing": "0", "has_caek": "0", "gid": "190", "extra_info": ""}}, {"geometry": {"type": "Point", "coordinates": [146.669, -42.4464]}, "type": "Feature", "properties": {"division": "", "gx_id": "193", "booth_info": "Assisted Disabled", "premises": "Ouse Online Centre", "opening_hours": "", "has_bbq": "0", "address": "6947 Lyell Hwy TAS 7140", "source": "", "state": "TAS", "polling_place_name": "Ouse Online Centre", "has_nothing": "0", "has_caek": "0", "gid": "193", "extra_info": ""}}, {"geometry": {"type": "Point", "coordinates": [147.874, -42.562900000000006]}, "type": "Feature", "properties": {"division": "", "gx_id": "192", "booth_info": "Assisted Disabled", "premises": "Orford Community Hall", "opening_hours": "", "has_bbq": "0", "address": "Charles St TAS 7190", "source": "", "state": "TAS", "polling_place_name": "Orford Community Hall", "has_nothing": "0", "has_caek": "0", "gid": "192", "extra_info": ""}}, {"geometry": {"type": "Point", "coordinates": [147.404, -42.8819]}, "type": "Feature", "properties": {"division": "", "gx_id": "115", "booth_info": "Assisted Disabled", "premises": "Howrah Scout Hall", "opening_hours": "", "has_bbq": "0", "address": "Howrah Primary School, Howrah Rd TAS 7018", "source": "", "state": "TAS", "polling_place_name": "Howrah Scout Hall", "has_nothing": "0", "has_caek": "0", "gid": "115", "extra_info": ""}}, {"geometry": {"type": "Point", "coordinates": [147.2915454, -43.0191283]}, "type": "Feature", "properties": {"division": "", "gx_id": "114", "booth_info": "Assisted Disabled", "premises": "Howden Fire Station", "opening_hours": "", "has_bbq": "0", "address": "Howden Rd TAS 7054", "source": "", "state": "TAS", "polling_place_name": "Howden Fire Station", "has_nothing": "0", "has_caek": "0", "gid": "114", "extra_info": ""}}, {"geometry": {"type": "Point", "coordinates": [147.0469969, -43.0291001]}, "type": "Feature", "properties": {"division": "", "gx_id": "117", "booth_info": "Assisted Disabled", "premises": "The Salvation Army Hall", "opening_hours": "", "has_bbq": "1", "address": "31 Wilmot Rd TAS 7109", "source": "", "state": "TAS", "polling_place_name": "The Salvation Army Hall", "has_nothing": "0", "has_caek": "0", "gid": "117", "extra_info": ""}}, {"geometry": {"type": "Point", "coordinates": [147.40900000000002, -42.891099999999994]}, "type": "Feature", "properties": {"division": "", "gx_id": "116", "booth_info": "Assisted Disabled", "premises": "Tranmere Hall", "opening_hours": "", "has_bbq": "0", "address": "27 Tranmere Rd TAS 7018", "source": "", "state": "TAS", "polling_place_name": "Tranmere Hall", "has_nothing": "0", "has_caek": "0", "gid": "116", "extra_info": ""}}, {"geometry": {"type": "Point", "coordinates": [147.324, -42.8806]}, "type": "Feature", "properties": {"division": "", "gx_id": "111", "booth_info": "Assisted Disabled", "premises": "GA Wood Hall", "opening_hours": "", "has_bbq": "0", "address": "29 Bathurst St TAS 7000", "source": "", "state": "TAS", "polling_place_name": "GA Wood Hall", "has_nothing": "1", "has_caek": "0", "gid": "111", "extra_info": ""}}, {"geometry": {"type": "Point", "coordinates": [146.974945, -41.23625199999999]}, "type": "Feature", "properties": {"division": "", "gx_id": "110", "booth_info": "Assisted Disabled", "premises": "Hillwood Memorial Hall", "opening_hours": "", "has_bbq": "0", "address": "280 Jetty Rd TAS 7252", "source": "", "state": "TAS", "polling_place_name": "Hillwood Memorial Hall", "has_nothing": "0", "has_caek": "0", "gid": "110", "extra_info": ""}}, {"geometry": {"type": "Point", "coordinates": [147.3204475, -42.8812157]}, "type": "Feature", "properties": {"division": "", "gx_id": "113", "booth_info": "Standard", "premises": "St Peter's Hall", "opening_hours": "", "has_bbq": "0", "address": "cnr Brisbane & Harrington Sts TAS 7000", "source": "", "state": "TAS", "polling_place_name": "St Peter's Hall", "has_nothing": "0", "has_caek": "0", "gid": "113", "extra_info": ""}}, {"geometry": {"type": "Point", "coordinates": [147.331806, -42.880739]}, "type": "Feature", "properties": {"division": "", "gx_id": "112", "booth_info": "Assisted Disabled", "premises": "City Hall", "opening_hours": "", "has_bbq": "0", "address": "57-63 Macquarie St TAS 7000", "source": "", "state": "TAS", "polling_place_name": "City Hall", "has_nothing": "0", "has_caek": "0", "gid": "112", "extra_info": ""}}, {"geometry": {"type": "Point", "coordinates": [146.244, -41.1589]}, "type": "Feature", "properties": {"division": "", "gx_id": "278", "booth_info": "Assisted Disabled", "premises": "Turners Community Centre", "opening_hours": "", "has_bbq": "0", "address": "Henry St TAS 7315", "source": "", "state": "TAS", "polling_place_name": "Turners Community Centre", "has_nothing": "0", "has_caek": "0", "gid": "278", "extra_info": ""}}, {"geometry": {"type": "Point", "coordinates": [147.10999999999999, -41.4782]}, "type": "Feature", "properties": {"division": "", "gx_id": "205", "booth_info": "Standard", "premises": "Residential Retirement Village Clubrooms", "opening_hours": "", "has_bbq": "0", "address": "12 Casino Rise TAS 7250", "source": "", "state": "TAS", "polling_place_name": "Residential Retirement Village Clubrooms", "has_nothing": "0", "has_caek": "0", "gid": "205", "extra_info": ""}}, {"geometry": {"type": "Point", "coordinates": [146.248975, -41.192921]}, "type": "Feature", "properties": {"division": "", "gx_id": "80", "booth_info": "Assisted Disabled", "premises": "Forth Primary School", "opening_hours": "", "has_bbq": "0", "address": "45 Wilmot Road TAS 7310", "source": "", "state": "TAS", "polling_place_name": "Forth Primary School", "has_nothing": "0", "has_caek": "0", "gid": "80", "extra_info": ""}}, {"geometry": {"type": "Point", "coordinates": [146.732, -41.3165]}, "type": "Feature", "properties": {"division": "", "gx_id": "81", "booth_info": "Assisted Disabled", "premises": "Frankford Memorial Hall", "opening_hours": "", "has_bbq": "0", "address": "Frankford Rd TAS 7275", "source": "", "state": "TAS", "polling_place_name": "Frankford Memorial Hall", "has_nothing": "0", "has_caek": "0", "gid": "81", "extra_info": ""}}, {"geometry": {"type": "Point", "coordinates": [147.132, -41.415699999999994]}, "type": "Feature", "properties": {"division": "", "gx_id": "119", "booth_info": "Assisted Disabled", "premises": "St Finn Barr's School", "opening_hours": "", "has_bbq": "0", "address": "247 Invermay Rd TAS 7248", "source": "", "state": "TAS", "polling_place_name": "St Finn Barr's School", "has_nothing": "0", "has_caek": "0", "gid": "119", "extra_info": ""}}, {"geometry": {"type": "Point", "coordinates": [147.13123300000004, -41.421676]}, "type": "Feature", "properties": {"division": "", "gx_id": "118", "booth_info": "Assisted Disabled", "premises": "Invermay Primary School", "opening_hours": "", "has_bbq": "0", "address": "35-43 Mayne St TAS 7248", "source": "", "state": "TAS", "polling_place_name": "Invermay Primary School", "has_nothing": "0", "has_caek": "0", "gid": "118", "extra_info": ""}}, {"geometry": {"type": "Point", "coordinates": [146.15999999999997, -41.1852]}, "type": "Feature", "properties": {"division": "", "gx_id": "84", "booth_info": "Assisted Disabled", "premises": "Gawler Public Hall", "opening_hours": "", "has_bbq": "0", "address": "15 Top Gawler Rd TAS 7315", "source": "", "state": "TAS", "polling_place_name": "Gawler Public Hall", "has_nothing": "0", "has_caek": "0", "gid": "84", "extra_info": ""}}, {"geometry": {"type": "Point", "coordinates": [147.126, -41.472]}, "type": "Feature", "properties": {"division": "", "gx_id": "204", "booth_info": "Assisted Disabled", "premises": "St Patrick's College", "opening_hours": "", "has_bbq": "0", "address": "282 Westbury Rd TAS 7250", "source": "", "state": "TAS", "polling_place_name": "St Patrick's College", "has_nothing": "0", "has_caek": "0", "gid": "204", "extra_info": ""}}, {"geometry": {"type": "Point", "coordinates": [147.14822900000001, -41.461287]}, "type": "Feature", "properties": {"division": "", "gx_id": "251", "booth_info": "Assisted Disabled", "premises": "Cosgrove Park Bowls Club", "opening_hours": "", "has_bbq": "0", "address": "25 Waveney St TAS 7249", "source": "", "state": "TAS", "polling_place_name": "Cosgrove Park Bowls Club", "has_nothing": "0", "has_caek": "0", "gid": "251", "extra_info": ""}}, {"geometry": {"type": "Point", "coordinates": [145.558, -42.0802]}, "type": "Feature", "properties": {"division": "", "gx_id": "207", "booth_info": "Standard", "premises": "Queenstown Memorial Hall", "opening_hours": "", "has_bbq": "0", "address": "53 Orr St TAS 7467", "source": "", "state": "TAS", "polling_place_name": "Queenstown Memorial Hall", "has_nothing": "1", "has_caek": "0", "gid": "207", "extra_info": ""}}, {"geometry": {"type": "Point", "coordinates": [146.15999999999997, -41.2627]}, "type": "Feature", "properties": {"division": "", "gx_id": "256", "booth_info": "Assisted Disabled", "premises": "Sprent Primary School", "opening_hours": "", "has_bbq": "0", "address": "1245 Castra Rd TAS 7315", "source": "", "state": "TAS", "polling_place_name": "Sprent Primary School", "has_nothing": "0", "has_caek": "0", "gid": "256", "extra_info": ""}}, {"geometry": {"type": "Point", "coordinates": [148.001, -41.292399999999994]}, "type": "Feature", "properties": {"division": "", "gx_id": "206", "booth_info": "Assisted Disabled", "premises": "Pyengana War Memorial Hall", "opening_hours": "", "has_bbq": "0", "address": "St Columba Falls Rd TAS 7216", "source": "", "state": "TAS", "polling_place_name": "Pyengana War Memorial Hall", "has_nothing": "0", "has_caek": "0", "gid": "206", "extra_info": ""}}, {"geometry": {"type": "Point", "coordinates": [147.196, -42.985]}, "type": "Feature", "properties": {"division": "", "gx_id": "226", "booth_info": "Assisted Disabled", "premises": "Sandfly Hall", "opening_hours": "", "has_bbq": "0", "address": "811 Sandfly Rd TAS 7150", "source": "", "state": "TAS", "polling_place_name": "Sandfly Hall", "has_nothing": "0", "has_caek": "0", "gid": "226", "extra_info": ""}}, {"geometry": {"type": "Point", "coordinates": [146.34434, -41.21207]}, "type": "Feature", "properties": {"division": "", "gx_id": "257", "booth_info": "Assisted Disabled", "premises": "Spreyton Primary School", "opening_hours": "", "has_bbq": "0", "address": "1 Mersey Main Rd TAS 7310", "source": "", "state": "TAS", "polling_place_name": "Spreyton Primary School", "has_nothing": "0", "has_caek": "0", "gid": "257", "extra_info": ""}}, {"geometry": {"type": "Point", "coordinates": [146.492, -42.136]}, "type": "Feature", "properties": {"division": "", "gx_id": "27", "booth_info": "Standard", "premises": "Bronte Park Highland Village", "opening_hours": "", "has_bbq": "0", "address": "378 Marlborough Rd TAS 7140", "source": "", "state": "TAS", "polling_place_name": "Bronte Park Highland Village", "has_nothing": "0", "has_caek": "0", "gid": "27", "extra_info": ""}}, {"geometry": {"type": "Point", "coordinates": [147.327957, -43.360818]}, "type": "Feature", "properties": {"division": "", "gx_id": "3", "booth_info": "Standard", "premises": "Adventure Bay Hall", "opening_hours": "", "has_bbq": "0", "address": "706 Adventure Bay Rd TAS 7150", "source": "", "state": "TAS", "polling_place_name": "Adventure Bay Hall", "has_nothing": "0", "has_caek": "0", "gid": "3", "extra_info": ""}}, {"geometry": {"type": "Point", "coordinates": [145.97699999999998, -41.2345]}, "type": "Feature", "properties": {"division": "", "gx_id": "254", "booth_info": "Assisted Disabled", "premises": "South Riana Public Hall", "opening_hours": "", "has_bbq": "0", "address": "776 South Riana Rd TAS 7316", "source": "", "state": "TAS", "polling_place_name": "South Riana Public Hall", "has_nothing": "0", "has_caek": "0", "gid": "254", "extra_info": ""}}, {"geometry": {"type": "Point", "coordinates": [147.726, -41.781699999999994]}, "type": "Feature", "properties": {"division": "", "gx_id": "7", "booth_info": "Standard", "premises": "Avoca Primary School", "opening_hours": "", "has_bbq": "0", "address": "26-30 St Pauls Pl TAS 7213", "source": "", "state": "TAS", "polling_place_name": "Avoca Primary School", "has_nothing": "0", "has_caek": "0", "gid": "7", "extra_info": ""}}, {"geometry": {"type": "Point", "coordinates": [146.889, -42.6969]}, "type": "Feature", "properties": {"division": "", "gx_id": "92", "booth_info": "Standard", "premises": "Glenora District High School", "opening_hours": "", "has_bbq": "0", "address": "620 Gordon River Rd TAS 7140", "source": "", "state": "TAS", "polling_place_name": "Glenora District High School", "has_nothing": "0", "has_caek": "0", "gid": "92", "extra_info": ""}}, {"geometry": {"type": "Point", "coordinates": [146.9795856, -43.4341277]}, "type": "Feature", "properties": {"division": "", "gx_id": "255", "booth_info": "Assisted Disabled", "premises": "Southport Fire Station", "opening_hours": "", "has_bbq": "0", "address": "3 Cathkit St TAS 7109", "source": "", "state": "TAS", "polling_place_name": "Southport Fire Station", "has_nothing": "0", "has_caek": "0", "gid": "255", "extra_info": ""}}, {"geometry": {"type": "Point", "coordinates": [147.239, -43.1601]}, "type": "Feature", "properties": {"division": "", "gx_id": "300", "booth_info": "Assisted Disabled", "premises": "Woodbridge Hall", "opening_hours": "", "has_bbq": "0", "address": "3445 Channel Hwy TAS 7162", "source": "", "state": "TAS", "polling_place_name": "Woodbridge Hall", "has_nothing": "0", "has_caek": "0", "gid": "300", "extra_info": ""}}, {"geometry": {"type": "Point", "coordinates": [145.72899999999998, -40.9909]}, "type": "Feature", "properties": {"division": "", "gx_id": "301", "booth_info": "Assisted Disabled", "premises": "Senior Citizens Club Rooms", "opening_hours": "", "has_bbq": "0", "address": "28 Jackson St TAS 7325", "source": "", "state": "TAS", "polling_place_name": "Senior Citizens Club Rooms", "has_nothing": "0", "has_caek": "0", "gid": "301", "extra_info": ""}}, {"geometry": {"type": "Point", "coordinates": [145.717, -40.9867]}, "type": "Feature", "properties": {"division": "", "gx_id": "302", "booth_info": "Assisted Disabled", "premises": "Wynyard High School", "opening_hours": "", "has_bbq": "1", "address": "30 Church St TAS 7325", "source": "", "state": "TAS", "polling_place_name": "Wynyard High School", "has_nothing": "0", "has_caek": "0", "gid": "302", "extra_info": ""}}, {"geometry": {"type": "Point", "coordinates": [145.719, -41.1237]}, "type": "Feature", "properties": {"division": "", "gx_id": "303", "booth_info": "Assisted Disabled", "premises": "Yolla District High School", "opening_hours": "", "has_bbq": "0", "address": "School La TAS 7325", "source": "", "state": "TAS", "polling_place_name": "Yolla District High School", "has_nothing": "0", "has_caek": "0", "gid": "303", "extra_info": ""}}, {"geometry": {"type": "Point", "coordinates": [147.164, -41.4823]}, "type": "Feature", "properties": {"division": "", "gx_id": "304", "booth_info": "Assisted Disabled", "premises": "Youngtown Primary School", "opening_hours": "", "has_bbq": "0", "address": "Napier St TAS 7249", "source": "", "state": "TAS", "polling_place_name": "Youngtown Primary School", "has_nothing": "0", "has_caek": "0", "gid": "304", "extra_info": ""}}, {"geometry": {"type": "Point", "coordinates": [147.126, -42.6567]}, "type": "Feature", "properties": {"division": "", "gx_id": "26", "booth_info": "Assisted Disabled", "premises": "Broadmarsh Hall", "opening_hours": "", "has_bbq": "0", "address": "1218 Elderslie Rd TAS 7030", "source": "", "state": "TAS", "polling_place_name": "Broadmarsh Hall", "has_nothing": "0", "has_caek": "0", "gid": "26", "extra_info": ""}}, {"geometry": {"type": "Point", "coordinates": [145.34000000000003, -41.888]}, "type": "Feature", "properties": {"division": "", "gx_id": "305", "booth_info": "Assisted Disabled", "premises": "Zeehan Primary School", "opening_hours": "", "has_bbq": "0", "address": "7 Belstead St TAS 7469", "source": "", "state": "TAS", "polling_place_name": "Zeehan Primary School", "has_nothing": "0", "has_caek": "0", "gid": "305", "extra_info": ""}}, {"geometry": {"type": "Point", "coordinates": [145.836367, -41.043137]}, "type": "Feature", "properties": {"division": "", "gx_id": "245", "booth_info": "Assisted Disabled", "premises": "Somerset Primary School", "opening_hours": "", "has_bbq": "0", "address": "8 Wragg Street TAS 7322", "source": "", "state": "TAS", "polling_place_name": "Somerset Primary School", "has_nothing": "0", "has_caek": "0", "gid": "245", "extra_info": ""}}, {"geometry": {"type": "Point", "coordinates": [147.255, -43.0664]}, "type": "Feature", "properties": {"division": "", "gx_id": "244", "booth_info": "Assisted Disabled", "premises": "Snug Primary School", "opening_hours": "", "has_bbq": "0", "address": "Channel Hwy TAS 7054", "source": "", "state": "TAS", "polling_place_name": "Snug Primary School", "has_nothing": "0", "has_caek": "0", "gid": "244", "extra_info": ""}}, {"geometry": {"type": "Point", "coordinates": [145.986, -41.0751]}, "type": "Feature", "properties": {"division": "", "gx_id": "108", "booth_info": "Assisted Disabled", "premises": "Blythe Heads Hall", "opening_hours": "", "has_bbq": "0", "address": "Sice Ave TAS 7316", "source": "", "state": "TAS", "polling_place_name": "Blythe Heads Hall", "has_nothing": "0", "has_caek": "0", "gid": "108", "extra_info": ""}}, {"geometry": {"type": "Point", "coordinates": [145.806, -41.1904]}, "type": "Feature", "properties": {"division": "", "gx_id": "109", "booth_info": "Standard", "premises": "Highclere Community Centre", "opening_hours": "", "has_bbq": "0", "address": "1558 Ridgley Hwy TAS 7321", "source": "", "state": "TAS", "polling_place_name": "Highclere Community Centre", "has_nothing": "0", "has_caek": "0", "gid": "109", "extra_info": ""}}, {"geometry": {"type": "Point", "coordinates": [145.565, -40.9181]}, "type": "Feature", "properties": {"division": "", "gx_id": "241", "booth_info": "Standard", "premises": "Sisters Beach Fire Station", "opening_hours": "", "has_bbq": "0", "address": "Honeysuckle Ave TAS 7321", "source": "", "state": "TAS", "polling_place_name": "Sisters Beach Fire Station", "has_nothing": "0", "has_caek": "0", "gid": "241", "extra_info": ""}}, {"geometry": {"type": "Point", "coordinates": [146.887, -41.2221]}, "type": "Feature", "properties": {"division": "", "gx_id": "240", "booth_info": "Assisted Disabled", "premises": "Sidmouth Community Centre", "opening_hours": "", "has_bbq": "0", "address": "255 Batman Hwy TAS 7270", "source": "", "state": "TAS", "polling_place_name": "Sidmouth Community Centre", "has_nothing": "0", "has_caek": "0", "gid": "240", "extra_info": ""}}, {"geometry": {"type": "Point", "coordinates": [145.127, -40.8427]}, "type": "Feature", "properties": {"division": "", "gx_id": "243", "booth_info": "Standard", "premises": "Smithton Uniting Church Hall", "opening_hours": "", "has_bbq": "0", "address": "45 Goldie St TAS 7330", "source": "", "state": "TAS", "polling_place_name": "Smithton Uniting Church Hall", "has_nothing": "0", "has_caek": "0", "gid": "243", "extra_info": ""}}, {"geometry": {"type": "Point", "coordinates": [145.586, -40.9605]}, "type": "Feature", "properties": {"division": "", "gx_id": "242", "booth_info": "Assisted Disabled", "premises": "Sisters Creek Hall", "opening_hours": "", "has_bbq": "0", "address": "17894 Bass Hwy TAS 7321", "source": "", "state": "TAS", "polling_place_name": "Sisters Creek Hall", "has_nothing": "0", "has_caek": "0", "gid": "242", "extra_info": ""}}, {"geometry": {"type": "Point", "coordinates": [146.923, -42.6444]}, "type": "Feature", "properties": {"division": "", "gx_id": "102", "booth_info": "Standard", "premises": "Gretna (St Mary's Parish) Hall", "opening_hours": "", "has_bbq": "0", "address": "3548 Lyell Hwy TAS 7140", "source": "", "state": "TAS", "polling_place_name": "Gretna (St Mary's Parish) Hall", "has_nothing": "0", "has_caek": "0", "gid": "102", "extra_info": ""}}, {"geometry": {"type": "Point", "coordinates": [146.039, -41.2774]}, "type": "Feature", "properties": {"division": "", "gx_id": "103", "booth_info": "Assisted Disabled", "premises": "Gunns Plains Hall", "opening_hours": "", "has_bbq": "0", "address": "957 Gunns Plains Rd TAS 7315", "source": "", "state": "TAS", "polling_place_name": "Gunns Plains Hall", "has_nothing": "0", "has_caek": "0", "gid": "103", "extra_info": ""}}, {"geometry": {"type": "Point", "coordinates": [144.058, -40.0484]}, "type": "Feature", "properties": {"division": "", "gx_id": "100", "booth_info": "Standard", "premises": "Grassy Club", "opening_hours": "", "has_bbq": "0", "address": "10 Grassy Rd TAS 7256", "source": "", "state": "TAS", "polling_place_name": "Grassy Club", "has_nothing": "0", "has_caek": "0", "gid": "100", "extra_info": ""}}, {"geometry": {"type": "Point", "coordinates": [146.973, -41.2939]}, "type": "Feature", "properties": {"division": "", "gx_id": "101", "booth_info": "Assisted Disabled", "premises": "Gravelly Beach Main Hall", "opening_hours": "", "has_bbq": "0", "address": "Edinburgh Park Off Gravelly Beach Rd TAS 7276", "source": "", "state": "TAS", "polling_place_name": "Gravelly Beach Main Hall", "has_nothing": "0", "has_caek": "0", "gid": "101", "extra_info": ""}}, {"geometry": {"type": "Point", "coordinates": [146.83000000000004, -42.5597]}, "type": "Feature", "properties": {"division": "", "gx_id": "106", "booth_info": "Assisted Disabled", "premises": "Hamilton Hall", "opening_hours": "", "has_bbq": "0", "address": "Tarleton St TAS 7140", "source": "", "state": "TAS", "polling_place_name": "Hamilton Hall", "has_nothing": "0", "has_caek": "0", "gid": "106", "extra_info": ""}}, {"geometry": {"type": "Point", "coordinates": [145.911, -41.0836]}, "type": "Feature", "properties": {"division": "", "gx_id": "107", "booth_info": "Assisted Disabled", "premises": "Havenview Primary School", "opening_hours": "", "has_bbq": "0", "address": "15 Marriott St TAS 7320", "source": "", "state": "TAS", "polling_place_name": "Havenview Primary School", "has_nothing": "0", "has_caek": "0", "gid": "107", "extra_info": ""}}, {"geometry": {"type": "Point", "coordinates": [147.064, -41.5064]}, "type": "Feature", "properties": {"division": "", "gx_id": "104", "booth_info": "Assisted Disabled", "premises": "Hadspen Uniting Church Centre", "opening_hours": "", "has_bbq": "0", "address": "47 Main St TAS 7290", "source": "", "state": "TAS", "polling_place_name": "Hadspen Uniting Church Centre", "has_nothing": "0", "has_caek": "0", "gid": "104", "extra_info": ""}}, {"geometry": {"type": "Point", "coordinates": [146.887, -41.52669999999999]}, "type": "Feature", "properties": {"division": "", "gx_id": "105", "booth_info": "Standard", "premises": "Hagley Uniting Church Hall", "opening_hours": "", "has_bbq": "0", "address": "Meander Valley Rd TAS 7292", "source": "", "state": "TAS", "polling_place_name": "Hagley Uniting Church Hall", "has_nothing": "0", "has_caek": "0", "gid": "105", "extra_info": ""}}, {"geometry": {"type": "Point", "coordinates": [147.259102, -42.80013]}, "type": "Feature", "properties": {"division": "", "gx_id": "39", "booth_info": "Disabled", "premises": "Windermere Primary School", "opening_hours": "", "has_bbq": "0", "address": "2 Cadbury Rd TAS 7011", "source": "", "state": "TAS", "polling_place_name": "Windermere Primary School", "has_nothing": "0", "has_caek": "0", "gid": "39", "extra_info": ""}}, {"geometry": {"type": "Point", "coordinates": [147.2405494, -42.7861799]}, "type": "Feature", "properties": {"division": "", "gx_id": "38", "booth_info": "Disabled", "premises": "Austins Ferry Primary School", "opening_hours": "", "has_bbq": "0", "address": "13 Brodie St TAS 7011", "source": "", "state": "TAS", "polling_place_name": "Austins Ferry Primary School", "has_nothing": "1", "has_caek": "0", "gid": "38", "extra_info": ""}}, {"geometry": {"type": "Point", "coordinates": [147.495, -41.927]}, "type": "Feature", "properties": {"division": "", "gx_id": "33", "booth_info": "Assisted Disabled", "premises": "Campbell Town Town Hall", "opening_hours": "", "has_bbq": "0", "address": "75 High St(Midland Highway) TAS 7210", "source": "", "state": "TAS", "polling_place_name": "Campbell Town Town Hall", "has_nothing": "0", "has_caek": "0", "gid": "33", "extra_info": ""}}, {"geometry": {"type": "Point", "coordinates": [147.422, -42.6672]}, "type": "Feature", "properties": {"division": "", "gx_id": "32", "booth_info": "Assisted Disabled", "premises": "Campania Hall", "opening_hours": "", "has_bbq": "0", "address": "Reeve St TAS 7026", "source": "", "state": "TAS", "polling_place_name": "Campania Hall", "has_nothing": "0", "has_caek": "0", "gid": "32", "extra_info": ""}}, {"geometry": {"type": "Point", "coordinates": [147.3527368, -42.9433021]}, "type": "Feature", "properties": {"division": "", "gx_id": "270", "booth_info": "Assisted Disabled", "premises": "Taroona Primary School", "opening_hours": "", "has_bbq": "0", "address": "104 Channel Hwy TAS 7053", "source": "", "state": "TAS", "polling_place_name": "Taroona Primary School", "has_nothing": "0", "has_caek": "0", "gid": "270", "extra_info": ""}}, {"geometry": {"type": "Point", "coordinates": [145.631, -41.06849999999999]}, "type": "Feature", "properties": {"division": "", "gx_id": "30", "booth_info": "Standard", "premises": "Calder Hall", "opening_hours": "", "has_bbq": "0", "address": "1320 Calder Rd TAS 7325", "source": "", "state": "TAS", "polling_place_name": "Calder Hall", "has_nothing": "0", "has_caek": "0", "gid": "30", "extra_info": ""}}, {"geometry": {"type": "Point", "coordinates": [147.2482384, -42.7931591]}, "type": "Feature", "properties": {"division": "", "gx_id": "37", "booth_info": "Assisted Disabled", "premises": "Claremont Girl Guide Hall", "opening_hours": "", "has_bbq": "0", "address": "Box Hill Rd TAS 7011", "source": "", "state": "TAS", "polling_place_name": "Claremont Girl Guide Hall", "has_nothing": "0", "has_caek": "0", "gid": "37", "extra_info": ""}}, {"geometry": {"type": "Point", "coordinates": [147.421, -43.0264]}, "type": "Feature", "properties": {"division": "", "gx_id": "247", "booth_info": "Assisted Disabled", "premises": "South Arm Primary School", "opening_hours": "", "has_bbq": "0", "address": "Harmony Lane TAS 7022", "source": "", "state": "TAS", "polling_place_name": "South Arm Primary School", "has_nothing": "0", "has_caek": "0", "gid": "247", "extra_info": ""}}, {"geometry": {"type": "Point", "coordinates": [147.24165489999996, -42.81119369999999]}, "type": "Feature", "properties": {"division": "", "gx_id": "35", "booth_info": "Assisted Disabled", "premises": "Chigwell Barn", "opening_hours": "", "has_bbq": "0", "address": "10 Bucaan St TAS 7011", "source": "", "state": "TAS", "polling_place_name": "Chigwell Barn", "has_nothing": "0", "has_caek": "0", "gid": "35", "extra_info": ""}}, {"geometry": {"type": "Point", "coordinates": [147.011, -41.5311]}, "type": "Feature", "properties": {"division": "", "gx_id": "34", "booth_info": "Assisted Disabled", "premises": "Carrick Public Hall", "opening_hours": "", "has_bbq": "0", "address": "29 Meander Valley Rd TAS 7291", "source": "", "state": "TAS", "polling_place_name": "Carrick Public Hall", "has_nothing": "0", "has_caek": "0", "gid": "34", "extra_info": ""}}, {"geometry": {"type": "Point", "coordinates": [147.561, -42.7859]}, "type": "Feature", "properties": {"division": "", "gx_id": "246", "booth_info": "Assisted Disabled", "premises": "Sorell School Performing Arts Centre", "opening_hours": "", "has_bbq": "0", "address": "41 Gordon St TAS 7172", "source": "", "state": "TAS", "polling_place_name": "Sorell School Performing Arts Centre", "has_nothing": "0", "has_caek": "0", "gid": "246", "extra_info": ""}}, {"geometry": {"type": "Point", "coordinates": [146.833, -41.1124]}, "type": "Feature", "properties": {"division": "", "gx_id": "88", "booth_info": "Assisted Disabled", "premises": "George Town South  Primary School", "opening_hours": "", "has_bbq": "0", "address": "48-70 Victoria St TAS 7253", "source": "", "state": "TAS", "polling_place_name": "George Town South  Primary School", "has_nothing": "0", "has_caek": "0", "gid": "88", "extra_info": ""}}, {"geometry": {"type": "Point", "coordinates": [147.22299999999998, -42.6249]}, "type": "Feature", "properties": {"division": "", "gx_id": "8", "booth_info": "Standard", "premises": "Bagdad Primary School", "opening_hours": "", "has_bbq": "0", "address": "46-48 School Rd TAS 7030", "source": "", "state": "TAS", "polling_place_name": "Bagdad Primary School", "has_nothing": "0", "has_caek": "0", "gid": "8", "extra_info": ""}}, {"geometry": {"type": "Point", "coordinates": [145.53129999999996, -41.44422]}, "type": "Feature", "properties": {"division": "", "gx_id": "282", "booth_info": "Assisted Disabled", "premises": "Waratah Municipal Chambers", "opening_hours": "", "has_bbq": "0", "address": "12-14 Smith St TAS 7321", "source": "", "state": "TAS", "polling_place_name": "Waratah Municipal Chambers", "has_nothing": "0", "has_caek": "0", "gid": "282", "extra_info": ""}}, {"geometry": {"type": "Point", "coordinates": [147.154, -41.459]}, "type": "Feature", "properties": {"division": "", "gx_id": "252", "booth_info": "Assisted Disabled", "premises": "St Mark's Church Hall", "opening_hours": "", "has_bbq": "0", "address": "6 Hobart Rd TAS 7249", "source": "", "state": "TAS", "polling_place_name": "St Mark's Church Hall", "has_nothing": "0", "has_caek": "0", "gid": "252", "extra_info": ""}}, {"geometry": {"type": "Point", "coordinates": [145.782, -41.09219999999999]}, "type": "Feature", "properties": {"division": "", "gx_id": "72", "booth_info": "Standard", "premises": "Elliott Community Centre", "opening_hours": "", "has_bbq": "0", "address": "829 Murchison Hwy TAS 7325", "source": "", "state": "TAS", "polling_place_name": "Elliott Community Centre", "has_nothing": "0", "has_caek": "0", "gid": "72", "extra_info": ""}}, {"geometry": {"type": "Point", "coordinates": [147.283, -42.835800000000006]}, "type": "Feature", "properties": {"division": "", "gx_id": "93", "booth_info": "Assisted Disabled", "premises": "Cosgrove High School", "opening_hours": "", "has_bbq": "0", "address": "286 Main Rd TAS 7010", "source": "", "state": "TAS", "polling_place_name": "Cosgrove High School", "has_nothing": "0", "has_caek": "0", "gid": "93", "extra_info": ""}}, {"geometry": {"type": "Point", "coordinates": [147.31800000000004, -42.6903]}, "type": "Feature", "properties": {"division": "", "gx_id": "271", "booth_info": "Assisted Disabled", "premises": "Tea Tree Community Hall", "opening_hours": "", "has_bbq": "0", "address": "Briar Banks Rd TAS 7017", "source": "", "state": "TAS", "polling_place_name": "Tea Tree Community Hall", "has_nothing": "0", "has_caek": "0", "gid": "271", "extra_info": ""}}, {"geometry": {"type": "Point", "coordinates": [147.34899999999996, -42.8383]}, "type": "Feature", "properties": {"division": "", "gx_id": "86", "booth_info": "Standard", "premises": "Geilston Bay High School", "opening_hours": "", "has_bbq": "0", "address": "271 East Derwent Hwy TAS 7015", "source": "", "state": "TAS", "polling_place_name": "Geilston Bay High School", "has_nothing": "0", "has_caek": "0", "gid": "86", "extra_info": ""}}, {"geometry": {"type": "Point", "coordinates": [146.563, -41.46179999999999]}, "type": "Feature", "properties": {"division": "", "gx_id": "70", "booth_info": "Assisted Disabled", "premises": "Elizabeth Town Fire Station", "opening_hours": "", "has_bbq": "0", "address": "5816 Bass Hwy TAS 7304", "source": "", "state": "TAS", "polling_place_name": "Elizabeth Town Fire Station", "has_nothing": "0", "has_caek": "0", "gid": "70", "extra_info": ""}}, {"geometry": {"type": "Point", "coordinates": [147.082, -41.3368]}, "type": "Feature", "properties": {"division": "", "gx_id": "60", "booth_info": "Assisted Disabled", "premises": "Dilston War Memorial Hall", "opening_hours": "", "has_bbq": "0", "address": "308 John Lees Dr TAS 7252", "source": "", "state": "TAS", "polling_place_name": "Dilston War Memorial Hall", "has_nothing": "0", "has_caek": "0", "gid": "60", "extra_info": ""}}, {"geometry": {"type": "Point", "coordinates": [147.624, -42.8485]}, "type": "Feature", "properties": {"division": "", "gx_id": "61", "booth_info": "Assisted Disabled", "premises": "Dodges Ferry Community Recreation Centre", "opening_hours": "", "has_bbq": "0", "address": "532 Old Forcett Rd TAS 7173", "source": "", "state": "TAS", "polling_place_name": "Dodges Ferry Community Recreation Centre", "has_nothing": "0", "has_caek": "0", "gid": "61", "extra_info": ""}}, {"geometry": {"type": "Point", "coordinates": [148.249, -41.3222]}, "type": "Feature", "properties": {"division": "", "gx_id": "258", "booth_info": "Assisted Disabled", "premises": "St Helens Memorial Hall", "opening_hours": "", "has_bbq": "0", "address": "Cecilia St TAS 7216", "source": "", "state": "TAS", "polling_place_name": "St Helens Memorial Hall", "has_nothing": "0", "has_caek": "0", "gid": "258", "extra_info": ""}}, {"geometry": {"type": "Point", "coordinates": [147.20000000000002, -41.4597]}, "type": "Feature", "properties": {"division": "", "gx_id": "259", "booth_info": "Assisted Disabled", "premises": "St Leonards Primary School", "opening_hours": "", "has_bbq": "0", "address": "330 St Leonards Rd TAS 7250", "source": "", "state": "TAS", "polling_place_name": "St Leonards Primary School", "has_nothing": "0", "has_caek": "0", "gid": "259", "extra_info": ""}}, {"geometry": {"type": "Point", "coordinates": [147.179, -42.7282]}, "type": "Feature", "properties": {"division": "", "gx_id": "64", "booth_info": "Standard", "premises": "Dromedary (Millvale) Community Hall", "opening_hours": "", "has_bbq": "0", "address": "14 Millvale Rd TAS 7030", "source": "", "state": "TAS", "polling_place_name": "Dromedary (Millvale) Community Hall", "has_nothing": "0", "has_caek": "0", "gid": "64", "extra_info": ""}}, {"geometry": {"type": "Point", "coordinates": [147.812, -42.8852]}, "type": "Feature", "properties": {"division": "", "gx_id": "65", "booth_info": "Assisted Disabled", "premises": "Dunalley Primary School", "opening_hours": "", "has_bbq": "0", "address": "20-32 Bay St TAS 7177", "source": "", "state": "TAS", "polling_place_name": "Dunalley Primary School", "has_nothing": "0", "has_caek": "0", "gid": "65", "extra_info": ""}}, {"geometry": {"type": "Point", "coordinates": [147.128, -41.3873]}, "type": "Feature", "properties": {"division": "", "gx_id": "179", "booth_info": "Assisted Disabled", "premises": "Launceston North Uniting Church", "opening_hours": "", "has_bbq": "0", "address": "128 George Town Rd TAS 7248", "source": "", "state": "TAS", "polling_place_name": "Launceston North Uniting Church", "has_nothing": "0", "has_caek": "0", "gid": "179", "extra_info": ""}}, {"geometry": {"type": "Point", "coordinates": [147.304, -42.8615]}, "type": "Feature", "properties": {"division": "", "gx_id": "178", "booth_info": "Standard", "premises": "Sacred Heart College", "opening_hours": "", "has_bbq": "1", "address": "2 Cross St TAS 7008", "source": "", "state": "TAS", "polling_place_name": "Sacred Heart College", "has_nothing": "0", "has_caek": "1", "gid": "178", "extra_info": ""}}, {"geometry": {"type": "Point", "coordinates": [147.059, -42.7728]}, "type": "Feature", "properties": {"division": "", "gx_id": "177", "booth_info": "Assisted Disabled", "premises": "New Norfolk Sport & Recreation Centre", "opening_hours": "", "has_bbq": "0", "address": "50 Derwent Tce TAS 7140", "source": "", "state": "TAS", "polling_place_name": "New Norfolk Sport & Recreation Centre", "has_nothing": "0", "has_caek": "0", "gid": "177", "extra_info": ""}}, {"geometry": {"type": "Point", "coordinates": [147.064, -42.7793]}, "type": "Feature", "properties": {"division": "", "gx_id": "176", "booth_info": "Assisted Disabled", "premises": "New Norfolk Primary School", "opening_hours": "", "has_bbq": "0", "address": "8 Pioneer Ave TAS 7140", "source": "", "state": "TAS", "polling_place_name": "New Norfolk Primary School", "has_nothing": "0", "has_caek": "0", "gid": "176", "extra_info": ""}}, {"geometry": {"type": "Point", "coordinates": [145.922, -41.17009999999999]}, "type": "Feature", "properties": {"division": "", "gx_id": "175", "booth_info": "Assisted Disabled", "premises": "Natone Primary School", "opening_hours": "", "has_bbq": "0", "address": "100 Upper Natone Rd TAS 7321", "source": "", "state": "TAS", "polling_place_name": "Natone Primary School", "has_nothing": "0", "has_caek": "0", "gid": "175", "extra_info": ""}}, {"geometry": {"type": "Point", "coordinates": [147.131059, -41.4081402]}, "type": "Feature", "properties": {"division": "", "gx_id": "174", "booth_info": "Standard", "premises": "Launceston Church Grammar School", "opening_hours": "", "has_bbq": "0", "address": "Button St TAS 7248", "source": "", "state": "TAS", "polling_place_name": "Launceston Church Grammar School", "has_nothing": "0", "has_caek": "0", "gid": "174", "extra_info": ""}}, {"geometry": {"type": "Point", "coordinates": [147.109, -42.9614]}, "type": "Feature", "properties": {"division": "", "gx_id": "173", "booth_info": "Assisted Disabled", "premises": "Mountain River Memorial Hall", "opening_hours": "", "has_bbq": "0", "address": "263 Mountain River Rd TAS 7109", "source": "", "state": "TAS", "polling_place_name": "Mountain River Memorial Hall", "has_nothing": "0", "has_caek": "0", "gid": "173", "extra_info": ""}}, {"geometry": {"type": "Point", "coordinates": [147.299, -42.875]}, "type": "Feature", "properties": {"division": "", "gx_id": "172", "booth_info": "Standard", "premises": "Mt Stuart Primary School", "opening_hours": "", "has_bbq": "0", "address": "106 Gillon Cres TAS 7000", "source": "", "state": "TAS", "polling_place_name": "Mt Stuart Primary School", "has_nothing": "0", "has_caek": "0", "gid": "172", "extra_info": ""}}, {"geometry": {"type": "Point", "coordinates": [147.32299999999998, -42.9136]}, "type": "Feature", "properties": {"division": "", "gx_id": "171", "booth_info": "Assisted Disabled", "premises": "Mt Nelson Primary School", "opening_hours": "", "has_bbq": "0", "address": "388 Nelson Rd TAS 7007", "source": "", "state": "TAS", "polling_place_name": "Mt Nelson Primary School", "has_nothing": "0", "has_caek": "0", "gid": "171", "extra_info": ""}}, {"geometry": {"type": "Point", "coordinates": [147.401, -42.858200000000004]}, "type": "Feature", "properties": {"division": "", "gx_id": "170", "booth_info": "Assisted Disabled", "premises": "Citywide Baptist Church & Venue", "opening_hours": "", "has_bbq": "0", "address": "400 Cambridge Rd TAS 7018", "source": "", "state": "TAS", "polling_place_name": "Citywide Baptist Church & Venue", "has_nothing": "1", "has_caek": "0", "gid": "170", "extra_info": ""}}, {"geometry": {"type": "Point", "coordinates": [147.671829, -42.892402999999995]}, "type": "Feature", "properties": {"division": "", "gx_id": "203", "booth_info": "Assisted Disabled", "premises": "Primrose Sands Community Hall", "opening_hours": "", "has_bbq": "0", "address": "570 Primrose Sands Rd TAS 7173", "source": "", "state": "TAS", "polling_place_name": "Primrose Sands Community Hall", "has_nothing": "0", "has_caek": "0", "gid": "203", "extra_info": ""}}, {"geometry": {"type": "Point", "coordinates": [147.29930259999998, -42.8951454]}, "type": "Feature", "properties": {"division": "", "gx_id": "249", "booth_info": "Standard", "premises": "Badminton Association Centre", "opening_hours": "", "has_bbq": "0", "address": "101 Cascade Rd TAS 7004", "source": "", "state": "TAS", "polling_place_name": "Badminton Association Centre", "has_nothing": "0", "has_caek": "0", "gid": "249", "extra_info": ""}}, {"geometry": {"type": "Point", "coordinates": [147.144026, -41.452876]}, "type": "Feature", "properties": {"division": "", "gx_id": "253", "booth_info": "Assisted Disabled", "premises": "Launceston RSL", "opening_hours": "", "has_bbq": "0", "address": "313-315 Wellington St TAS 7249", "source": "", "state": "TAS", "polling_place_name": "Launceston RSL", "has_nothing": "0", "has_caek": "0", "gid": "253", "extra_info": ""}}, {"geometry": {"type": "Point", "coordinates": [145.908441, -41.060997]}, "type": "Feature", "properties": {"division": "", "gx_id": "248", "booth_info": "Assisted Disabled", "premises": "SES Burnie Unit", "opening_hours": "", "has_bbq": "0", "address": "9 Wellington Street TAS 7320", "source": "", "state": "TAS", "polling_place_name": "SES Burnie Unit", "has_nothing": "0", "has_caek": "0", "gid": "248", "extra_info": ""}}, {"geometry": {"type": "Point", "coordinates": [147.373, -43.1125]}, "type": "Feature", "properties": {"division": "", "gx_id": "182", "booth_info": "Assisted Disabled", "premises": "Barnes Bay CWA Rooms", "opening_hours": "", "has_bbq": "0", "address": "678 Bruny Island Main Rd TAS 7150", "source": "", "state": "TAS", "polling_place_name": "Barnes Bay CWA Rooms", "has_nothing": "1", "has_caek": "0", "gid": "182", "extra_info": ""}}, {"geometry": {"type": "Point", "coordinates": [147.316, -42.867]}, "type": "Feature", "properties": {"division": "", "gx_id": "183", "booth_info": "Assisted Disabled", "premises": "Friends Junior School Hall", "opening_hours": "", "has_bbq": "0", "address": "393Argyle St TAS 7000", "source": "", "state": "TAS", "polling_place_name": "Friends Junior School Hall", "has_nothing": "0", "has_caek": "1", "gid": "183", "extra_info": ""}}, {"geometry": {"type": "Point", "coordinates": [147.16100000000003, -41.4331]}, "type": "Feature", "properties": {"division": "", "gx_id": "180", "booth_info": "Assisted Disabled", "premises": "Newstead College", "opening_hours": "", "has_bbq": "0", "address": "30 Cypress St TAS 7250", "source": "", "state": "TAS", "polling_place_name": "Newstead College", "has_nothing": "0", "has_caek": "0", "gid": "180", "extra_info": ""}}, {"geometry": {"type": "Point", "coordinates": [147.157, -41.4472]}, "type": "Feature", "properties": {"division": "", "gx_id": "181", "booth_info": "Assisted Disabled", "premises": "Police Citizens & Youth Club", "opening_hours": "", "has_bbq": "0", "address": "148 Abbott St TAS 7250", "source": "", "state": "TAS", "polling_place_name": "Police Citizens & Youth Club", "has_nothing": "0", "has_caek": "0", "gid": "181", "extra_info": ""}}, {"geometry": {"type": "Point", "coordinates": [146.10937, -41.20637]}, "type": "Feature", "properties": {"division": "", "gx_id": "186", "booth_info": "Assisted Disabled", "premises": "North Motton Hall", "opening_hours": "", "has_bbq": "0", "address": "578 Preston Rd TAS 7315", "source": "", "state": "TAS", "polling_place_name": "North Motton Hall", "has_nothing": "0", "has_caek": "0", "gid": "186", "extra_info": ""}}, {"geometry": {"type": "Point", "coordinates": [147.174, -41.46209999999999]}, "type": "Feature", "properties": {"division": "", "gx_id": "187", "booth_info": "Assisted Disabled", "premises": "Norwood Primary School", "opening_hours": "", "has_bbq": "0", "address": "103 Norwood Ave TAS 7250", "source": "", "state": "TAS", "polling_place_name": "Norwood Primary School", "has_nothing": "0", "has_caek": "0", "gid": "187", "extra_info": ""}}, {"geometry": {"type": "Point", "coordinates": [147.31800000000004, -42.8776]}, "type": "Feature", "properties": {"division": "", "gx_id": "184", "booth_info": "Assisted Disabled", "premises": "Elizabeth College", "opening_hours": "", "has_bbq": "0", "address": "256 Elizabeth St TAS 7000", "source": "", "state": "TAS", "polling_place_name": "Elizabeth College", "has_nothing": "0", "has_caek": "0", "gid": "184", "extra_info": ""}}, {"geometry": {"type": "Point", "coordinates": [147.314, -42.872800000000005]}, "type": "Feature", "properties": {"division": "", "gx_id": "185", "booth_info": "Assisted Disabled", "premises": "Hobart North Uniting Church", "opening_hours": "", "has_bbq": "0", "address": "Swan St TAS 7000", "source": "", "state": "TAS", "polling_place_name": "Hobart North Uniting Church", "has_nothing": "1", "has_caek": "0", "gid": "185", "extra_info": ""}}, {"geometry": {"type": "Point", "coordinates": [147.743212, -43.099481]}, "type": "Feature", "properties": {"division": "", "gx_id": "188", "booth_info": "Assisted Disabled", "premises": "Tasman Civic Centre", "opening_hours": "", "has_bbq": "0", "address": "Clarke St TAS 7184", "source": "", "state": "TAS", "polling_place_name": "Tasman Civic Centre", "has_nothing": "0", "has_caek": "0", "gid": "188", "extra_info": ""}}, {"geometry": {"type": "Point", "coordinates": [147.296, -41.394]}, "type": "Feature", "properties": {"division": "", "gx_id": "189", "booth_info": "Assisted Disabled", "premises": "Nunamara Public Hall", "opening_hours": "", "has_bbq": "0", "address": "39461 Tasman Hwy TAS 7259", "source": "", "state": "TAS", "polling_place_name": "Nunamara Public Hall", "has_nothing": "0", "has_caek": "0", "gid": "189", "extra_info": ""}}, {"geometry": {"type": "Point", "coordinates": [146.062, -41.2972]}, "type": "Feature", "properties": {"division": "", "gx_id": "202", "booth_info": "Assisted Disabled", "premises": "Preston Community Centre", "opening_hours": "", "has_bbq": "0", "address": "1833 Preston Rd TAS 7315", "source": "", "state": "TAS", "polling_place_name": "Preston Community Centre", "has_nothing": "0", "has_caek": "0", "gid": "202", "extra_info": ""}}, {"geometry": {"type": "Point", "coordinates": [147.24445499999996, -43.31807]}, "type": "Feature", "properties": {"division": "", "gx_id": "4", "booth_info": "Assisted Disabled", "premises": "Bruny Island District School", "opening_hours": "", "has_bbq": "0", "address": "School Rd TAS 7150", "source": "", "state": "TAS", "polling_place_name": "Bruny Island District School", "has_nothing": "0", "has_caek": "0", "gid": "4", "extra_info": ""}}, {"geometry": {"type": "Point", "coordinates": [147.265, -42.8455]}, "type": "Feature", "properties": {"division": "", "gx_id": "97", "booth_info": "Assisted Disabled", "premises": "Tolosa Hall", "opening_hours": "", "has_bbq": "0", "address": "148 Tolosa St TAS 7010", "source": "", "state": "TAS", "polling_place_name": "Tolosa Hall", "has_nothing": "0", "has_caek": "0", "gid": "97", "extra_info": ""}}, {"geometry": {"type": "Point", "coordinates": [147.276, -42.7488]}, "type": "Feature", "properties": {"division": "", "gx_id": "83", "booth_info": "Assisted Disabled", "premises": "Gagebrook Primary School", "opening_hours": "", "has_bbq": "0", "address": "4 Tottenham Rd TAS 7030", "source": "", "state": "TAS", "polling_place_name": "Gagebrook Primary School", "has_nothing": "0", "has_caek": "0", "gid": "83", "extra_info": ""}}, {"geometry": {"type": "Point", "coordinates": [147.2511051, -42.7744865]}, "type": "Feature", "properties": {"division": "", "gx_id": "6", "booth_info": "Standard", "premises": "St Virgil's College", "opening_hours": "", "has_bbq": "0", "address": "195 Main Rd TAS 7011", "source": "", "state": "TAS", "polling_place_name": "St Virgil's College", "has_nothing": "0", "has_caek": "0", "gid": "6", "extra_info": ""}}, {"geometry": {"type": "Point", "coordinates": [147.224, -42.74980000000001]}, "type": "Feature", "properties": {"division": "", "gx_id": "99", "booth_info": "Assisted Disabled", "premises": "Granton Memorial Hall", "opening_hours": "", "has_bbq": "0", "address": "Lyell Hwy TAS 7030", "source": "", "state": "TAS", "polling_place_name": "Granton Memorial Hall", "has_nothing": "0", "has_caek": "0", "gid": "99", "extra_info": ""}}, {"geometry": {"type": "Point", "coordinates": [147.276, -42.8265]}, "type": "Feature", "properties": {"division": "", "gx_id": "98", "booth_info": "Standard", "premises": "Girl Guides Hall", "opening_hours": "", "has_bbq": "0", "address": "Booth Ave TAS 7010", "source": "", "state": "TAS", "polling_place_name": "Girl Guides Hall", "has_nothing": "0", "has_caek": "0", "gid": "98", "extra_info": ""}}, {"geometry": {"type": "Point", "coordinates": [145.616, -40.98100000000001]}, "type": "Feature", "properties": {"division": "", "gx_id": "168", "booth_info": "Assisted Disabled", "premises": "Moorleah Community Centre", "opening_hours": "", "has_bbq": "0", "address": "720 Preolenna Rd TAS 7321", "source": "", "state": "TAS", "polling_place_name": "Moorleah Community Centre", "has_nothing": "0", "has_caek": "0", "gid": "168", "extra_info": ""}}, {"geometry": {"type": "Point", "coordinates": [146.481134, -41.216812]}, "type": "Feature", "properties": {"division": "", "gx_id": "169", "booth_info": "Assisted Disabled", "premises": "Moriarty Hall", "opening_hours": "", "has_bbq": "0", "address": "1 Bonneys La TAS 7307", "source": "", "state": "TAS", "polling_place_name": "Moriarty Hall", "has_nothing": "0", "has_caek": "0", "gid": "169", "extra_info": ""}}, {"geometry": {"type": "Point", "coordinates": [147.346, -42.9087]}, "type": "Feature", "properties": {"division": "", "gx_id": "229", "booth_info": "Assisted Disabled", "premises": "St Stephen's Church Hall", "opening_hours": "", "has_bbq": "0", "address": "524 Sandy Bay Rd TAS 7005", "source": "", "state": "TAS", "polling_place_name": "St Stephen's Church Hall", "has_nothing": "1", "has_caek": "0", "gid": "229", "extra_info": ""}}, {"geometry": {"type": "Point", "coordinates": [147.319, -42.89840000000001]}, "type": "Feature", "properties": {"division": "", "gx_id": "228", "booth_info": "Assisted Disabled", "premises": "Princes Street Primary School", "opening_hours": "", "has_bbq": "0", "address": "cnr Princes & Randall Sts TAS 7005", "source": "", "state": "TAS", "polling_place_name": "Princes Street Primary School", "has_nothing": "0", "has_caek": "0", "gid": "228", "extra_info": ""}}, {"geometry": {"type": "Point", "coordinates": [145.898, -41.0605]}, "type": "Feature", "properties": {"division": "", "gx_id": "164", "booth_info": "Assisted Disabled", "premises": "Montello Primary School", "opening_hours": "", "has_bbq": "0", "address": "Bird St TAS 7320", "source": "", "state": "TAS", "polling_place_name": "Montello Primary School", "has_nothing": "0", "has_caek": "0", "gid": "164", "extra_info": ""}}, {"geometry": {"type": "Point", "coordinates": [147.2934743, -42.8321544]}, "type": "Feature", "properties": {"division": "", "gx_id": "165", "booth_info": "Disabled", "premises": "Goodwood Primary School", "opening_hours": "", "has_bbq": "0", "address": "Elmsleigh Rd TAS 7009", "source": "", "state": "TAS", "polling_place_name": "Goodwood Primary School", "has_nothing": "0", "has_caek": "0", "gid": "165", "extra_info": ""}}, {"geometry": {"type": "Point", "coordinates": [147.296066, -42.845951]}, "type": "Feature", "properties": {"division": "", "gx_id": "166", "booth_info": "Assisted Disabled", "premises": "Salvation Army Community Centre", "opening_hours": "", "has_bbq": "0", "address": "73 Hopkins St TAS 7009", "source": "", "state": "TAS", "polling_place_name": "Salvation Army Community Centre", "has_nothing": "0", "has_caek": "0", "gid": "166", "extra_info": ""}}, {"geometry": {"type": "Point", "coordinates": [147.308, -42.8474]}, "type": "Feature", "properties": {"division": "", "gx_id": "167", "booth_info": "Assisted Disabled", "premises": "Bowen Road Primary School", "opening_hours": "", "has_bbq": "0", "address": "35 Bowen Rd TAS 7009", "source": "", "state": "TAS", "polling_place_name": "Bowen Road Primary School", "has_nothing": "1", "has_caek": "0", "gid": "167", "extra_info": ""}}, {"geometry": {"type": "Point", "coordinates": [146.405, -41.5581]}, "type": "Feature", "properties": {"division": "", "gx_id": "160", "booth_info": "Assisted Disabled", "premises": "Mole Creek Primary School", "opening_hours": "", "has_bbq": "0", "address": "4 Caveside Rd TAS 7304", "source": "", "state": "TAS", "polling_place_name": "Mole Creek Primary School", "has_nothing": "0", "has_caek": "0", "gid": "160", "extra_info": ""}}, {"geometry": {"type": "Point", "coordinates": [147.157, -42.8038]}, "type": "Feature", "properties": {"division": "", "gx_id": "161", "booth_info": "Assisted Disabled", "premises": "Molesworth Primary School", "opening_hours": "", "has_bbq": "0", "address": "540 Molesworth Rd TAS 7140", "source": "", "state": "TAS", "polling_place_name": "Molesworth Primary School", "has_nothing": "0", "has_caek": "0", "gid": "161", "extra_info": ""}}, {"geometry": {"type": "Point", "coordinates": [144.9775271, -40.7847873]}, "type": "Feature", "properties": {"division": "", "gx_id": "162", "booth_info": "Assisted Disabled", "premises": "Montagu Fire Station", "opening_hours": "", "has_bbq": "0", "address": "Montagu Rd TAS 7330", "source": "", "state": "TAS", "polling_place_name": "Montagu Fire Station", "has_nothing": "0", "has_caek": "0", "gid": "162", "extra_info": ""}}, {"geometry": {"type": "Point", "coordinates": [147.353, -42.8646]}, "type": "Feature", "properties": {"division": "", "gx_id": "163", "booth_info": "Disabled", "premises": "Montagu Bay Primary School", "opening_hours": "", "has_bbq": "0", "address": "10 Conara Rd TAS 7018", "source": "", "state": "TAS", "polling_place_name": "Montagu Bay Primary School", "has_nothing": "0", "has_caek": "0", "gid": "163", "extra_info": ""}}, {"geometry": {"type": "Point", "coordinates": [146.819, -41.2024]}, "type": "Feature", "properties": {"division": "", "gx_id": "11", "booth_info": "Assisted Disabled", "premises": "Beaconsfield Senior Citizens' Hall", "opening_hours": "", "has_bbq": "0", "address": "Weld St TAS 7270", "source": "", "state": "TAS", "polling_place_name": "Beaconsfield Senior Citizens' Hall", "has_nothing": "0", "has_caek": "0", "gid": "11", "extra_info": ""}}, {"geometry": {"type": "Point", "coordinates": [147.326, -42.8912]}, "type": "Feature", "properties": {"division": "", "gx_id": "10", "booth_info": "Standard", "premises": "Albuera Street Primary School", "opening_hours": "", "has_bbq": "0", "address": "Albuera St TAS 7004", "source": "", "state": "TAS", "polling_place_name": "Albuera Street Primary School", "has_nothing": "0", "has_caek": "0", "gid": "10", "extra_info": ""}}, {"geometry": {"type": "Point", "coordinates": [147.371577, -42.875227]}, "type": "Feature", "properties": {"division": "", "gx_id": "13", "booth_info": "Assisted", "premises": "Clarence Police & Community Youth Club Inc", "opening_hours": "", "has_bbq": "0", "address": "10 Scott St TAS 7018", "source": "", "state": "TAS", "polling_place_name": "Clarence Police & Community Youth Club Inc", "has_nothing": "0", "has_caek": "0", "gid": "13", "extra_info": ""}}, {"geometry": {"type": "Point", "coordinates": [146.815, -41.1475]}, "type": "Feature", "properties": {"division": "", "gx_id": "12", "booth_info": "Assisted Disabled", "premises": "Beauty Point (Sandy Beach) Bowls Club Hall", "opening_hours": "", "has_bbq": "0", "address": "11 Mainwaring St TAS 7270", "source": "", "state": "TAS", "polling_place_name": "Beauty Point (Sandy Beach) Bowls Club Hall", "has_nothing": "0", "has_caek": "0", "gid": "12", "extra_info": ""}}, {"geometry": {"type": "Point", "coordinates": [148.3049286, -41.872521]}, "type": "Feature", "properties": {"division": "", "gx_id": "15", "booth_info": "Assisted Disabled", "premises": "Bicheno Primary School", "opening_hours": "", "has_bbq": "0", "address": "James St TAS 7215", "source": "", "state": "TAS", "polling_place_name": "Bicheno Primary School", "has_nothing": "0", "has_caek": "0", "gid": "15", "extra_info": ""}}, {"geometry": {"type": "Point", "coordinates": [147.389, -42.8784]}, "type": "Feature", "properties": {"division": "", "gx_id": "14", "booth_info": "Assisted Disabled", "premises": "Clarence High School", "opening_hours": "", "has_bbq": "1", "address": "Wentworth St TAS 7018", "source": "", "state": "TAS", "polling_place_name": "Clarence High School", "has_nothing": "0", "has_caek": "1", "gid": "14", "extra_info": ""}}, {"geometry": {"type": "Point", "coordinates": [147.3199914, -42.9987749]}, "type": "Feature", "properties": {"division": "", "gx_id": "17", "booth_info": "Assisted Disabled", "premises": "The Salvation Army Kingborough", "opening_hours": "", "has_bbq": "0", "address": "3 Opal Dr TAS 7052", "source": "", "state": "TAS", "polling_place_name": "The Salvation Army Kingborough", "has_nothing": "0", "has_caek": "0", "gid": "17", "extra_info": ""}}, {"geometry": {"type": "Point", "coordinates": [146.995, -41.6164]}, "type": "Feature", "properties": {"division": "", "gx_id": "16", "booth_info": "Standard", "premises": "Bishopsbourne Community Centre", "opening_hours": "", "has_bbq": "0", "address": "Recreation Ground, 1111 Bishopsbourne Rd TAS 7301", "source": "", "state": "TAS", "polling_place_name": "Bishopsbourne Community Centre", "has_nothing": "0", "has_caek": "0", "gid": "16", "extra_info": ""}}, {"geometry": {"type": "Point", "coordinates": [145.636, -40.94519999999999]}, "type": "Feature", "properties": {"division": "", "gx_id": "19", "booth_info": "Assisted", "premises": "Boat Harbour Primary School", "opening_hours": "", "has_bbq": "1", "address": "17386 Bass Hwy TAS 7321", "source": "", "state": "TAS", "polling_place_name": "Boat Harbour Primary School", "has_nothing": "0", "has_caek": "0", "gid": "19", "extra_info": ""}}, {"geometry": {"type": "Point", "coordinates": [147.50500000000002, -41.4823]}, "type": "Feature", "properties": {"division": "", "gx_id": "18", "booth_info": "Assisted Disabled", "premises": "North Esk Memorial Hall", "opening_hours": "", "has_bbq": "0", "address": "3132 Blessington Rd TAS 7212", "source": "", "state": "TAS", "polling_place_name": "North Esk Memorial Hall", "has_nothing": "0", "has_caek": "0", "gid": "18", "extra_info": ""}}, {"geometry": {"type": "Point", "coordinates": [144.87899999999996, -40.9601]}, "type": "Feature", "properties": {"division": "", "gx_id": "272", "booth_info": "Assisted Disabled", "premises": "Togari Community Centre", "opening_hours": "", "has_bbq": "0", "address": "7 Salmon River Rd TAS 7330", "source": "", "state": "TAS", "polling_place_name": "Togari Community Centre", "has_nothing": "0", "has_caek": "0", "gid": "272", "extra_info": ""}}, {"geometry": {"type": "Point", "coordinates": [147.106, -41.43010000000001]}, "type": "Feature", "properties": {"division": "", "gx_id": "273", "booth_info": "Assisted Disabled", "premises": "Trevallyn Life Church", "opening_hours": "", "has_bbq": "0", "address": "34 Pitt Ave TAS 7250", "source": "", "state": "TAS", "polling_place_name": "Trevallyn Life Church", "has_nothing": "0", "has_caek": "0", "gid": "273", "extra_info": ""}},